"PNuid_NLidu","Name_en","Nom_fr","Latitude","Longitude","satellite_dep","wo_backbone_fibre_sans_fibre_dorsale","CTI_backbone_dorsale_BPI"
1,"Halifax","Halifax",44.648757,-63.601876,0,0,0
2,"Dartmouth","Dartmouth",44.672142,-63.562168,0,0,0
3,"Charlottetown","Charlottetown",46.242961,-63.126519,0,0,0
4,"Sydney","Sydney",46.126469,-60.176689,0,0,0
5,"Glace Bay","Glace Bay",46.192901,-59.962389,0,0,0
6,"Bedford","Bedford",44.733924,-63.653377,0,0,0
7,"Summerside","Summerside",46.393458,-63.789341,0,0,0
8,"Amherst","Amherst",45.830781,-64.209807,0,0,0
9,"New Glasgow","New Glasgow",45.587794,-62.642169,0,0,0
10,"Eastern Passage","Eastern Passage",44.615441,-63.480148,0,0,0
11,"Bridgewater","Bridgewater",44.375475,-64.522476,0,0,0
12,"Yarmouth","Yarmouth",43.83567,-66.120048,0,0,0
14,"New Waterford","New Waterford",46.247297,-60.08167,0,0,0
15,"North Sydney","North Sydney",46.204423,-60.260953,0,0,0
16,"Bible Hill","Bible Hill",45.377819,-63.251466,0,0,0
17,"Kentville","Kentville",45.086887,-64.489193,0,0,0
18,"Lower Sackville","Lower Sackville",44.76279,-63.667137,0,0,0
19,"Fall River","Fall River",44.821059,-63.611263,0,0,0
20,"Stellarton","Stellarton",45.556695,-62.663698,0,0,0
21,"Antigonish","Antigonish",45.623888,-61.994489,0,0,0
22,"Greenwood","Greenwood",44.968348,-64.932953,0,0,0
23,"New Minas","New Minas",45.067351,-64.457023,0,0,0
24,"Springhill","Springhill",45.651053,-64.056599,0,0,0
25,"Westville","Westville",45.55761,-62.711478,0,0,0
26,"Pictou","Pictou",45.680317,-62.705484,0,0,0
27,"Windsor","Windsor",44.989112,-64.137718,0,0,0
28,"Port Hawkesbury","Port Hawkesbury",45.618477,-61.360132,0,0,0
29,"Wolfville","Wolfville",45.087032,-64.355902,0,0,0
31,"Liverpool","Liverpool",44.036255,-64.718972,0,0,0
32,"Sydney River","Sydney River",46.097443,-60.226466,0,0,0
33,"Kingston","Kingston",44.98767,-64.952343,0,0,0
34,"Trenton","Trenton",45.61673,-62.632673,0,0,0
35,"Shubenacadie","Shubenacadie",45.087367,-63.406758,0,0,0
36,"Enfield","Enfield",44.951539,-63.532686,0,0,0
37,"Elmsdale","Elmsdale",44.967014,-63.504486,0,0,0
38,"Dominion","Dominion",46.211922,-60.023562,0,0,0
39,"Westmount","Westmount",46.137947,-60.218552,0,0,0
40,"Berwick","Berwick",45.045524,-64.734149,0,0,0
41,"Digby","Digby",44.619461,-65.764455,0,0,0
42,"Shelburne","Shelburne",43.762137,-65.316761,0,0,0
43,"Bras d'Or","Bras d'Or",46.247916,-60.293895,0,0,0
44,"Reserve Mines","Reserve Mines",46.183228,-60.012083,0,0,0
45,"Montague","Montague",46.166741,-62.650928,0,0,0
46,"Prospect","Prospect",44.4703,-63.7882,0,0,1
47,"Middleton","Middleton",44.943143,-65.067497,0,0,0
48,"Inverness","Inverness",46.229332,-61.304065,0,0,0
49,"Mount Uniacke","Mount Uniacke",44.887299,-63.823514,0,0,0
50,"Lantz","Lantz",44.988791,-63.480257,0,0,0
51,"Chester","Chester",44.544706,-64.24043,0,0,0
52,"Parrsboro","Parrsboro",45.403413,-64.325671,0,0,0
53,"Hilden","Hilden",45.308172,-63.29061,0,0,0
54,"Stewiacke","Stewiacke",45.137957,-63.348574,0,0,0
55,"Kensington","Kensington",46.43509,-63.636769,0,0,0
56,"Oxford","Oxford",45.734804,-63.867064,0,0,0
57,"Souris","Souris",46.354618,-62.248536,0,0,0
58,"Hantsport","Hantsport",45.067624,-64.179662,0,0,0
59,"Alberton","Alberton",46.811267,-64.063926,0,0,0
60,"Brooklyn","Brooklyn",44.055204,-64.693051,0,0,0
61,"Bridgetown","Bridgetown",44.840736,-65.286153,0,0,0
62,"Milton","Milton",44.062363,-64.750025,0,0,0
63,"Chéticamp","Chéticamp",46.636,-61.008,0,0,0
64,"Three Mile Plains","Three Mile Plains",44.964269,-64.096958,0,0,0
65,"Herring Cove","Herring Cove",44.56701,-63.560943,0,0,0
66,"Falmouth","Falmouth",44.995753,-64.163034,0,0,0
67,"Waverley","Waverley",44.783842,-63.601193,0,0,0
68,"Louisbourg","Louisbourg",45.920011,-59.974802,0,0,0
69,"O'Leary","O'Leary",46.707616,-64.223198,0,0,0
70,"Tignish","Tignish",46.950001,-64.033333,0,0,0
71,"Sheet Harbour","Sheet Harbour",44.921013,-62.533466,0,0,0
72,"Canning","Canning",45.158692,-64.429297,0,0,0
73,"Miscouche","Miscouche",46.430963,-63.859378,0,0,0
74,"Georgetown","Georgetown",46.184812,-62.534031,0,0,0
75,"Lockeport","Lockeport",43.694826,-65.111716,0,0,0
76,"St. Peter's","St. Peter's",45.657752,-60.875715,0,0,0
77,"River Hebert","River Hebert",45.692315,-64.379065,0,0,0
78,"Lawrencetown","Lawrencetown",44.884645,-65.162078,0,0,0
79,"North Rustico","North Rustico",46.45925,-63.309202,0,0,0
80,"Annapolis Royal","Annapolis Royal",44.744892,-65.51122,0,0,0
81,"Arichat","Arichat",45.510972,-61.018048,0,0,0
82,"Mulgrave","Mulgrave",45.612105,-61.39358,0,0,0
83,"Baddeck","Baddeck",46.101371,-60.75365,0,0,0
84,"Wood Islands","Wood Islands",45.965852,-62.75645,0,0,0
85,"Clark's Harbour","Clark's Harbour",43.446273,-65.635724,0,0,0
86,"Musquodoboit Harbour","Musquodoboit Harbour",44.787813,-63.146767,0,0,0
87,"South Harbour","South Harbour",46.869108,-60.463842,0,0,0
88,"Meteghan","Meteghan",44.185635,-66.161248,0,0,0
89,"Mahone Bay","Mahone Bay",44.448587,-64.380442,0,0,0
90,"Canso","Canso",45.33562,-60.995228,0,0,0
91,"Murray Harbour","Murray Harbour",46.003505,-62.521319,0,0,0
92,"Morell","Morell",46.414862,-62.704972,0,0,0
93,"Mount Stewart","Mount Stewart",46.369157,-62.868262,0,0,0
94,"Red Bay","Red Bay",51.74463,-56.426012,0,0,1
95,"Miminegash","Miminegash",46.880718,-64.22564,0,0,0
96,"Gaspereaux","Gaspereaux",46.105535,-62.476079,0,0,0
97,"St-Raphaël","St-Raphaël",46.425262,-64.017046,0,0,1
98,"Louisdale","Louisdale",45.606494,-61.063595,0,0,0
99,"Havre Boucher","Havre Boucher",45.68452,-61.534711,0,0,0
100,"Clyde River","Clyde River",43.630886,-65.477321,0,0,0
101,"Walton","Walton",45.229556,-64.001939,0,0,0
102,"Merigomish","Merigomish",45.63271,-62.433109,0,0,0
103,"Capstick","Capstick",47.003161,-60.515017,0,0,0
104,"Ingonish Centre","Ingonish Centre",46.680493,-60.408404,0,0,0
105,"Port Morien","Port Morien",46.133524,-59.873956,0,0,0
106,"L'Ardoise","L'Ardoise",45.614505,-60.766787,0,0,0
107,"Margaree Forks","Margaree Forks",46.331078,-61.090195,0,0,0
108,"Elmira","Elmira",46.441238,-62.064408,0,0,0
109,"Grande Anse","Grande Anse",45.626055,-61.069144,0,0,0
110,"Whycocomagh","Whycocomagh",45.974325,-61.12718,0,0,0
112,"Mabou","Mabou",46.072911,-61.392098,0,0,0
113,"Advocate Harbour","Advocate Harbour",45.336814,-64.783246,0,0,0
114,"Sandy Point","Sandy Point",43.710782,-65.319271,0,0,0
115,"Port Hood","Port Hood",46.017664,-61.529844,0,0,0
116,"Askilton","Askilton",45.69046,-61.312246,0,0,0
117,"Judique","Judique",45.876011,-61.490657,0,0,0
118,"Tangier","Tangier",44.801573,-62.698985,0,0,0
119,"Mushaboom","Mushaboom",44.850738,-62.533687,0,0,0
120,"Moser River","Moser River",44.974953,-62.254173,0,0,0
121,"Londonderry","Londonderry",45.474488,-63.602802,0,0,0
122,"Hopewell","Hopewell",45.482811,-62.699494,0,0,0
123,"New Germany","New Germany",44.538594,-64.711955,0,0,0
124,"Jordan Falls","Jordan Falls",43.815532,-65.233595,0,0,0
125,"Ingonish","Ingonish",46.692015,-60.373185,0,0,0
126,"Shag Harbour","Shag Harbour",43.498533,-65.702969,0,0,0
127,"Lower Woods Harbour","Lower Woods Harbour",43.51616,-65.73474,0,0,0
128,"West Wentworth","West Wentworth",45.685893,-63.603188,0,0,0
129,"Upper Musquodoboit","Upper Musquodoboit",45.134083,-62.946919,0,0,0
130,"Brighton","Brighton",44.553008,-65.853955,0,0,0
131,"Guysborough","Guysborough",45.391732,-61.503125,0,0,0
132,"West Chezzetcook","West Chezzetcook",44.716185,-63.266519,0,0,0
133,"Middle Musquodoboit","Middle Musquodoboit",45.043763,-63.149622,0,0,0
134,"Wedgeport","Wedgeport",43.739225,-65.979654,0,0,0
135,"Brooklyn","Brooklyn",45.006962,-64.013123,0,0,0
136,"Deep Brook","Deep Brook",44.636614,-65.654258,0,0,0
137,"Plymouth","Plymouth",43.801067,-66.015188,0,0,0
138,"Martins River","Martins River",44.486178,-64.335413,0,0,0
139,"Saulnierville","Saulnierville",44.264199,-66.129985,0,0,0
140,"East Kemptville","East Kemptville",44.087032,-65.769705,0,0,0
141,"Economy","Economy",45.384636,-63.916967,0,0,0
142,"Great Village","Great Village",45.411669,-63.596237,0,0,0
143,"Noel","Noel",45.295738,-63.747985,0,0,0
144,"Middlewood","Middlewood",44.229763,-64.573857,0,0,0
145,"Debert","Debert",45.437936,-63.459815,0,0,0
146,"Pleasant Bay","Pleasant Bay",46.827546,-60.801122,0,0,0
147,"Northport","Northport",45.932583,-63.867604,0,0,0
148,"Tatamagouche","Tatamagouche",45.709407,-63.294496,0,0,0
149,"Pugwash","Pugwash",45.850485,-63.662234,0,0,0
150,"Kennetcook","Kennetcook",45.176299,-63.721843,0,0,0
151,"Wallace","Wallace",45.812571,-63.472779,0,0,0
152,"Hacketts Cove","Hacketts Cove",44.567392,-63.923574,0,0,0
153,"Sambro","Sambro",44.474754,-63.603401,0,0,0
154,"Margaretsville","Margaretsville",45.047082,-65.063417,0,0,0
155,"Greenfield","Greenfield",44.272901,-64.841565,0,0,1
156,"River John","River John",45.752335,-63.069545,0,0,0
157,"Weymouth","Weymouth",44.40456,-65.998464,0,0,0
158,"Porters Lake","Porters Lake",44.737171,-63.310043,0,0,0
159,"Lake Echo","Lake Echo",44.735923,-63.392341,0,0,0
160,"Donkin","Donkin",46.184763,-59.872709,0,0,0
161,"Port Hastings","Port Hastings",45.649814,-61.404096,0,0,0
163,"Bay St. Lawrence","Bay St. Lawrence",47.00368,-60.463965,0,0,0
164,"Neils Harbour","Neils Harbour",46.81078,-60.324076,0,0,0
165,"Dingwall","Dingwall",46.895625,-60.477412,0,0,0
166,"Cape North","Cape North",46.887584,-60.50285,0,0,0
167,"New Haven","New Haven",46.824102,-60.321006,0,0,0
168,"St. Margaret Village","St. Margaret Village",46.989203,-60.47451,0,0,1
169,"Meat Cove","Meat Cove",47.026462,-60.569817,0,0,0
170,"Ingonish Beach","Ingonish Beach",46.63788,-60.402891,0,0,0
171,"Little River","Little River",46.442915,-60.466548,0,0,0
172,"Ingonish Ferry","Ingonish Ferry",46.627993,-60.392063,0,0,0
173,"Wreck Cove","Wreck Cove",46.548991,-60.41078,0,0,0
174,"Birch Plain","Birch Plain",46.512413,-60.4271,0,0,0
175,"French River","French River",46.490839,-60.440366,0,0,0
176,"River Bennet","River Bennet",46.33329,-60.535751,0,0,0
177,"Indian Brook","Indian Brook",46.370384,-60.53198,0,0,0
178,"Tarbot","Tarbot",46.336687,-60.595273,0,0,0
179,"Jersey Cove","Jersey Cove",46.310863,-60.546862,0,0,0
180,"Big Bank","Big Bank",46.212648,-60.498695,0,0,0
181,"St. Anns","St. Anns",46.213049,-60.60635,0,0,0
182,"Middle River","Middle River",46.154269,-60.924996,0,0,0
183,"Boularderie","Boularderie",46.165876,-60.565113,0,0,0
184,"MacAulays Hill","MacAulays Hill",46.143334,-60.679916,0,0,0
185,"Baddeck Bay","Baddeck Bay",46.131959,-60.695559,0,0,0
186,"Englishtown","Englishtown",46.27974,-60.54438,0,0,0
187,"New Campbellton","New Campbellton",46.290562,-60.429246,0,0,0
188,"Grand Narrows","Grand Narrows",45.95561,-60.790385,0,0,0
190,"Big Baddeck","Big Baddeck",46.122689,-60.797676,0,0,0
191,"Big Bras d'Or","Big Bras d'Or",46.271521,-60.425801,0,0,0
192,"Big Farm","Big Farm",46.10378,-60.819263,0,0,0
193,"Little Narrows","Little Narrows",45.990451,-60.981731,0,0,0
194,"McKinnons Harbour","McKinnons Harbour",45.946525,-60.903303,0,0,0
195,"Jamesville","Jamesville",45.946774,-60.849772,0,0,0
196,"Iona","Iona",45.961555,-60.807418,0,0,0
197,"Nyanza","Nyanza",46.092618,-60.889626,0,0,0
198,"Lower Washabuck","Lower Washabuck",46.069437,-60.768153,0,0,0
199,"North River Bridge","North River Bridge",46.303899,-60.629756,0,0,0
200,"Crescent Grove","Crescent Grove",46.118167,-60.722679,0,0,0
201,"Forks Baddeck","Forks Baddeck",46.17798,-60.767619,0,0,0
202,"Inlet Baddeck","Inlet Baddeck",46.079234,-60.820008,0,0,0
203,"Estmere","Estmere",45.932001,-60.980137,0,0,0
204,"Big Hill","Big Hill",46.165542,-60.641454,0,0,0
205,"Ross Ferry","Ross Ferry",46.143497,-60.581705,0,0,0
206,"Red River","Red River",46.845341,-60.774409,0,0,0
207,"Portree","Portree",46.401273,-60.965381,0,0,0
208,"Petit Étang","Petit Étang",46.648375,-60.976089,0,0,0
209,"La Prairie","La Prairie",46.638709,-60.970143,0,0,0
210,"Belle-Marche","Belle-Marche",46.624918,-60.985756,0,0,0
211,"Plateau","Plateau",46.592872,-61.00729,0,0,0
212,"Grand Étang","Grand Étang",46.546247,-61.048773,0,0,0
213,"St. Joseph du Moine","St. Joseph du Moine",46.532241,-61.060016,0,0,0
214,"Cap Le Moine","Cap Le Moine",46.507905,-61.071794,0,0,0
215,"Margaree Harbour","Margaree Harbour",46.438713,-61.111995,0,0,0
216,"Margaree","Margaree",46.392817,-61.072397,0,0,0
217,"Inverside","Inverside",46.238966,-61.27459,0,0,0
218,"North East Margaree","North East Margaree",46.328767,-61.00232,0,0,0
219,"Margaree Centre","Margaree Centre",46.344144,-61.003603,0,0,0
220,"Egypt Road","Egypt Road",46.337958,-60.952532,0,0,0
221,"Emerald","Emerald",46.322725,-61.044888,0,0,0
222,"South West Margaree","South West Margaree",46.280908,-61.140594,0,0,0
223,"Upper Margaree","Upper Margaree",46.218385,-61.133679,0,0,0
224,"Scotsville","Scotsville",46.189027,-61.15406,0,0,0
225,"Belle Côte","Belle Côte",46.443239,-61.092142,0,0,0
226,"Broad Cove Banks","Broad Cove Banks",46.212961,-61.334486,0,0,0
227,"Harbourview","Harbourview",45.985982,-61.524276,0,0,0
228,"Deepdale","Deepdale",46.195079,-61.28344,0,0,0
229,"Soapstone Mine","Soapstone Mine",45.985678,-61.183439,0,0,0
230,"Mabou Station","Mabou Station",46.067564,-61.398941,0,0,0
231,"Mabou Harbour Mouth","Mabou Harbour Mouth",46.092801,-61.462147,0,0,0
232,"Southwest Mabou","Southwest Mabou",46.024784,-61.450134,0,0,0
233,"Dunmore","Dunmore",46.007368,-61.51341,0,0,0
234,"Marble Hill","Marble Hill",46.040338,-61.543828,0,0,0
235,"West Mabou","West Mabou",46.076174,-61.469321,0,0,0
236,"Glenville","Glenville",46.158133,-61.312527,0,0,0
237,"South Lake Ainslie","South Lake Ainslie",46.03987,-61.119608,0,0,0
238,"Troy","Troy",45.685141,-61.438278,0,0,0
239,"Big Marsh","Big Marsh",45.894256,-61.205294,0,0,0
240,"Judique North","Judique North",45.904113,-61.479589,0,0,0
241,"Judique South","Judique South",45.853382,-61.48884,0,0,0
242,"Marble Mountain","Marble Mountain",45.817557,-61.041308,0,0,0
243,"Iron Mines","Iron Mines",45.938135,-61.148555,0,0,0
244,"West Bay","West Bay",45.709204,-61.172274,0,0,0
245,"Orangedale","Orangedale",45.901032,-61.096935,0,0,0
246,"Pleasant Hill","Pleasant Hill",45.643872,-61.36509,0,0,0
247,"West Bay Road","West Bay Road",45.730744,-61.254085,0,0,0
248,"Creignish","Creignish",45.728256,-61.456548,0,0,0
249,"Long Point","Long Point",45.806847,-61.482608,0,0,0
250,"Kingsville","Kingsville",45.780455,-61.322598,0,0,0
251,"River Denys","River Denys",45.829551,-61.178554,0,0,0
252,"Glendale","Glendale",45.812598,-61.316937,0,0,0
253,"Blues Mills","Blues Mills",45.925185,-61.195307,0,0,0
254,"Whiteside","Whiteside",45.606207,-61.195454,0,0,0
255,"Cleveland","Cleveland",45.667479,-61.233001,0,0,0
256,"Hureauville","Hureauville",45.642424,-61.240049,0,0,0
257,"Evanston","Evanston",45.622702,-61.219255,0,0,0
258,"River Bourgeois","River Bourgeois",45.63842,-60.947341,0,0,0
259,"French Cove","French Cove",45.698716,-60.831595,0,0,0
260,"Sampsonville","Sampsonville",45.681828,-60.848905,0,0,0
261,"River Tillard","River Tillard",45.651278,-60.91626,0,0,0
262,"Carters Cove","Carters Cove",45.686852,-60.844638,0,0,0
263,"The Points West Bay","The Points West Bay",45.754994,-60.978341,0,0,0
264,"St. Georges Channel","St. Georges Channel",45.720639,-61.043901,0,0,0
266,"Janvrin Harbour","Janvrin Harbour",45.530549,-61.179496,0,0,0
267,"Little Anse","Little Anse",45.492682,-60.929623,0,0,0
268,"Poulamon","Poulamon",45.581,-60.9895,0,0,0
269,"Boudreauville","Boudreauville",45.509218,-60.963214,0,0,0
270,"Petit-de-Grat","Petit-de-Grat",45.504832,-60.95484,0,0,0
271,"West Arichat","West Arichat",45.514744,-61.081279,0,0,0
272,"Port Royal","Port Royal",45.534,-61.0813,0,0,0
273,"Pondville","Pondville",45.541113,-60.991101,0,0,0
274,"Poirierville","Poirierville",45.578734,-60.926597,0,0,0
275,"D'Escousse","D'Escousse",45.587258,-60.960698,0,0,0
276,"Little Harbour","Little Harbour",45.586188,-60.737162,0,0,0
277,"Fourchu","Fourchu",45.716611,-60.260506,0,0,1
278,"Grande Greve","Grande Greve",45.631886,-60.843195,0,0,0
279,"Rockdale","Rockdale",45.616625,-60.809742,0,0,0
280,"Grand River","Grand River",45.645119,-60.661741,0,0,0
281,"Barra Head","Barra Head",45.678664,-60.783694,0,0,0
282,"Red Islands","Red Islands",45.779044,-60.74261,0,0,0
283,"Soldiers Cove","Soldiers Cove",45.695632,-60.735595,0,0,0
284,"Lower L'Ardoise","Lower L'Ardoise",45.601268,-60.74089,0,0,0
285,"Framboise","Framboise",45.722892,-60.375502,0,0,0
286,"Alder Point","Alder Point",46.294406,-60.281594,0,0,0
287,"East Bay","East Bay",46.018764,-60.371183,0,0,0
288,"Irish Vale","Irish Vale",45.849873,-60.647044,0,0,0
289,"Big Pond","Big Pond",45.902919,-60.544142,0,0,0
290,"Rock Elm","Rock Elm",45.930651,-60.334305,0,0,0
291,"Marion Bridge","Marion Bridge",45.981104,-60.21177,0,0,0
292,"Howie Centre","Howie Centre",46.070118,-60.277965,0,0,0
293,"Albert Bridge","Albert Bridge",46.024767,-60.063078,0,0,0
294,"Catalone","Catalone",45.983819,-59.98432,0,0,0
295,"Florence","Florence",46.259388,-60.260866,0,0,0
296,"Gabarus","Gabarus",45.838184,-60.140332,0,0,0
297,"Leitches Creek","Leitches Creek",46.168937,-60.310854,0,0,0
298,"St. Andrews Channel","St. Andrews Channel",45.93015,-60.515013,0,0,0
299,"Grand Mira South","Grand Mira South",45.892058,-60.289277,0,0,0
300,"North Lake","North Lake",46.46448,-62.066615,0,0,0
301,"Kingsboro","Kingsboro",46.392344,-62.111268,0,0,0
302,"South Lake","South Lake",46.422722,-62.049813,0,0,0
303,"Bayfield","Bayfield",46.474072,-62.195214,0,0,0
304,"Bothwell","Bothwell",46.40283,-62.0824,0,0,0
305,"Little Harbour","Little Harbour",46.362157,-62.188211,0,0,0
306,"Souris Line Road","Souris Line Road",46.396027,-62.249816,0,0,0
307,"Red Point","Red Point",46.379828,-62.140559,0,0,0
308,"Chepstow","Chepstow",46.353122,-62.214579,0,0,0
309,"Souris West","Souris West",46.359233,-62.288147,0,0,0
310,"New Zealand","New Zealand",46.397986,-62.309802,0,0,0
311,"Bay Fortune","Bay Fortune",46.327297,-62.369205,0,0,0
312,"Rollo Bay","Rollo Bay",46.3597309470478,-62.3381534148576,0,0,0
313,"Fortune Harbour","Fortune Harbour",46.337378,-62.359919,0,0,0
314,"New Acadia","New Acadia",46.399667,-62.396429,0,0,0
315,"Fortune Bridge","Fortune Bridge",46.349798,-62.378864,0,0,0
316,"Bear River","Bear River",46.39103,-62.354185,0,0,0
317,"Farmington","Farmington",46.385999,-62.488852,0,0,0
318,"Annandale","Annandale",46.260852,-62.423688,0,0,0
319,"Little Pond","Little Pond",46.281078,-62.41063,0,0,0
320,"Bridgetown","Bridgetown",46.305642,-62.527922,0,0,0
321,"Dundas","Dundas",46.317705,-62.509759,0,0,0
322,"Upton","Upton",46.336775,-62.539956,0,0,0
323,"St. Georges","St. Georges",46.2586495859625,-62.5052961652272,0,0,0
324,"Strathcona","Strathcona",46.323287,-62.554626,0,0,0
325,"Seal River","Seal River",46.235164,-62.545934,0,0,0
326,"Cardigan","Cardigan",46.236889,-62.623116,0,0,0
327,"Brudenell","Brudenell",46.18619,-62.650109,0,0,0
328,"New Perth","New Perth",46.211374,-62.703296,0,0,0
329,"Pooles Corner","Pooles Corner",46.209627,-62.650308,0,0,0
330,"Lower Montague","Lower Montague",46.166977,-62.571725,0,0,0
331,"Lorne Valley","Lorne Valley",46.269002,-62.692705,0,0,0
332,"St. Peters","St. Peters",46.41341,-62.578752,0,0,0
333,"Peakes","Peakes",46.298043,-62.778543,0,0,0
334,"St. Margarets","St. Margarets",46.455165,-62.384948,0,0,0
335,"Cable Head East","Cable Head East",46.466827,-62.573427,0,0,0
336,"Bristol","Bristol",46.415185,-62.729079,0,0,0
337,"West St. Peters","West St. Peters",46.411948,-62.776422,0,0,0
338,"Commercial Cross","Commercial Cross",46.127525,-62.633146,0,0,0
340,"Pisquid","Pisquid",46.337969,-62.856041,0,0,0
341,"Murray River","Murray River",46.011098,-62.614456,0,0,0
342,"Beach Point","Beach Point",46.01166,-62.49206,0,0,0
343,"Murray Harbour North","Murray Harbour North",46.054558,-62.485321,0,0,0
344,"Alliston","Alliston",46.0578785246267,-62.6064173337887,0,0,0
345,"Cambridge","Cambridge",46.073639,-62.525077,0,0,0
346,"Sturgeon","Sturgeon",46.108642,-62.529157,0,0,0
347,"Kilmuir","Kilmuir",46.119345,-62.666017,0,0,0
348,"Peters Road","Peters Road",46.0666847620361,-62.5646534981708,0,0,0
349,"High Bank","High Bank",45.964964,-62.622709,0,0,0
350,"Abney","Abney",45.994543,-62.569043,0,0,0
351,"White Sands","White Sands",45.967658,-62.558144,0,0,0
352,"Belle River","Belle River",45.980594,-62.840412,0,0,0
353,"Melville","Melville",46.01992,-62.827311,0,0,0
354,"Flat River","Flat River",46.0101,-62.864813,0,0,0
355,"Pinette","Pinette",46.0562567135782,-62.9091627764555,0,0,0
356,"Iona","Iona",46.09835,-62.807194,0,0,0
357,"Point Prim","Point Prim",46.061986,-62.990237,0,0,0
358,"Mount Vernon","Mount Vernon",46.011876,-62.743693,0,0,0
359,"Uigg","Uigg",46.164793,-62.813371,0,0,0
360,"Orwell","Orwell",46.154095,-62.835208,0,0,0
361,"Vernon Bridge","Vernon Bridge",46.178597,-62.884145,0,0,0
362,"Vernon River","Vernon River",46.211166,-62.827045,0,0,0
363,"Eldon","Eldon",46.09372,-62.887688,0,0,0
364,"Kinross","Kinross",46.158565,-62.809206,0,0,0
365,"Bunbury","Bunbury",46.2346703337331,-63.068957408012,0,0,0
366,"Keppoch","Keppoch",46.204647,-63.106313,0,0,0
367,"Bethel","Bethel",46.244501,-62.969863,0,0,0
368,"Hazelbrook","Hazelbrook",46.217287,-62.991923,0,0,0
369,"Southport","Southport",46.224877,-63.104058,0,0,0
370,"Johnstons River","Johnstons River",46.269264,-63.017025,0,0,0
371,"Auburn","Auburn",46.295229,-62.904267,0,0,0
372,"Tarantum","Tarantum",46.290726,-62.952977,0,0,0
373,"TRACADIE CROSS","TRACADIE CROSS",46.346277,-62.965967,0,0,0
374,"York","York",46.312872,-63.095265,0,0,0
375,"Bedford Corner","Bedford Corner",46.327227,-63.018325,0,0,0
376,"Stanhope","Stanhope",46.398732,-63.115368,0,0,0
377,"Grand Tracadie","Grand Tracadie",46.392506,-63.052851,0,0,0
378,"Covehead Road","Covehead Road",46.364384,-63.116831,0,0,0
379,"Alberry Plains","Alberry Plains",46.211885,-62.781075,0,0,0
380,"Greenfield","Greenfield",46.184758,-62.738738,0,0,0
381,"Elliotvale","Elliotvale",46.251367,-62.77292,0,0,0
382,"Fort Augustus","Fort Augustus",46.32003,-62.918354,0,0,0
383,"St. Patrick Road","St. Patrick Road",46.3319,-62.777789,0,0,0
384,"Mount Mellick","Mount Mellick",46.205055,-62.945469,0,0,0
385,"Earnscliffe","Earnscliffe",46.14157,-62.951137,0,0,0
386,"Caledonia","Caledonia",46.059034,-62.70911,0,0,0
387,"Savage Harbour","Savage Harbour",46.421165,-62.864956,0,0,0
388,"Midgell","Midgell",46.408651,-62.654244,0,0,0
389,"Goose River","Goose River",46.455153,-62.511692,0,0,0
390,"Naufrage","Naufrage",46.465985,-62.423289,0,0,0
391,"Stanhope by the Sea","Stanhope by the Sea",46.411975,-63.111001,0,0,0
392,"Union Road","Union Road",46.325315,-63.13236,0,0,1
393,"Brackley","Brackley",46.303824,-63.146373,0,0,0
394,"Highfield","Highfield",46.288146,-63.173092,0,0,0
395,"North River","North River",46.256405,-63.200234,0,0,0
396,"Miltonvale Park","Miltonvale Park",46.305783,-63.217328,0,0,0
397,"Hillsborough Park","Hillsborough Park",46.265089,-63.114455,0,0,0
398,"Clyde River","Clyde River",46.222408,-63.256786,0,0,0
399,"Cornwall","Cornwall",46.225667,-63.224711,0,0,0
400,"Meadow Bank","Meadow Bank",46.200639,-63.227902,0,0,0
401,"New Haven","New Haven",46.21688,-63.294803,0,0,0
402,"Rocky Point","Rocky Point",46.201739,-63.150608,0,0,0
403,"Cumberland","Cumberland",46.173967,-63.161241,0,0,0
404,"Canoe Cove","Canoe Cove",46.154132,-63.296002,0,0,0
405,"Kingston","Kingston",46.263035,-63.277199,0,0,0
406,"North Wiltshire","North Wiltshire",46.300546,-63.331781,0,0,0
407,"Tyrone","Tyrone",46.278535,-63.34482,0,0,0
408,"Long Creek","Long Creek",46.17149,-63.271299,0,0,0
409,"Crapaud","Crapaud",46.240307,-63.50023,0,0,0
410,"Hunter River","Hunter River",46.356243,-63.346278,0,0,0
411,"Breadalbane","Breadalbane",46.354841,-63.498103,0,0,0
412,"Victoria","Victoria",46.21878,-63.497584,0,0,0
413,"Hampton","Hampton",46.211817,-63.460821,0,0,0
414,"Appin Road","Appin Road",46.241019,-63.395821,0,0,0
415,"South Melville","South Melville",46.234574,-63.433536,0,0,0
416,"DeSable","DeSable",46.198437,-63.415764,0,0,0
417,"Kellys Cross","Kellys Cross",46.269659,-63.447437,0,0,0
418,"Bonshaw","Bonshaw",46.192618,-63.353706,0,0,0
419,"Carleton","Carleton",46.692023,-64.151894,0,0,0
420,"BORDEN-CARLETON","BORDEN-CARLETON",46.253573,-63.694622,0,0,0
421,"North Tryon","North Tryon",46.2510902514187,-63.5504292304841,0,0,0
422,"Albany","Albany",46.284758,-63.641757,0,0,0
423,"Middleton","Middleton",46.320996,-63.645472,0,0,0
424,"Central Bedeque","Central Bedeque",46.339442,-63.702635,0,0,0
425,"Bedeque","Bedeque",46.33584,-63.721022,0,0,0
426,"Kinkora","Kinkora",46.322593,-63.604281,0,0,0
427,"Freetown","Freetown",46.373802,-63.618539,0,0,0
428,"Emerald Junction","Emerald Junction",46.360009,-63.551164,0,0,0
429,"Fredericton","Fredericton",46.360449,-63.424234,0,0,0
430,"Searletown","Searletown",46.305953,-63.699116,0,0,0
431,"Rose Valley","Rose Valley",46.319429,-63.492748,0,0,0
432,"Hartsville","Hartsville",46.3196088140593,-63.3975492923177,0,0,0
433,"Ebenezer","Ebenezer",46.353022,-63.261723,0,0,0
434,"Oyster Bed Bridge","Oyster Bed Bridge",46.388511,-63.236295,0,0,0
435,"Wheatley River","Wheatley River",46.373213,-63.290252,0,0,0
436,"South Rustico","South Rustico",46.415709,-63.298876,0,0,0
437,"New Glasgow","New Glasgow",46.409937,-63.349485,0,0,0
438,"Harrington","Harrington",46.352792,-63.169561,0,0,0
439,"Brackley Beach","Brackley Beach",46.420339,-63.198029,0,0,0
440,"Hampshire","Hampshire",46.288745,-63.286926,0,0,0
441,"Cape Traverse","Cape Traverse",46.243451,-63.63813,0,0,0
442,"Reads Corner","Reads Corner",46.396205,-63.745183,0,0,0
443,"St. Eleanors","St. Eleanors",46.422851,-63.810396,0,0,0
444,"Slemon Park","Slemon Park",46.4376943263303,-63.8283419611732,0,0,0
445,"Travellers Rest","Travellers Rest",46.41836,-63.738955,0,0,0
446,"New Annan","New Annan",46.419701,-63.711734,0,0,0
447,"Indian River","Indian River",46.477064,-63.684937,0,0,1
448,"Malpeque","Malpeque",46.526714,-63.687315,0,0,1
449,"Spring Valley","Spring Valley",46.498749,-63.627139,0,0,1
450,"Sea View","Sea View",46.538526,-63.596029,0,0,0
451,"Margate","Margate",46.457633,-63.58837,0,0,0
452,"Fernwood","Fernwood",46.325413,-63.809625,0,0,0
453,"Long River","Long River",46.488862,-63.540496,0,0,0
454,"French River","French River",46.515163,-63.523891,0,0,0
455,"New London","New London",46.464564,-63.511313,0,0,0
456,"Stanley Bridge","Stanley Bridge",46.461257,-63.454131,0,0,0
457,"Granville","Granville",46.426563,-63.468318,0,0,0
458,"Cavendish","Cavendish",46.490165,-63.377196,0,0,0
459,"Millvale","Millvale",46.41116,-63.421091,0,0,0
460,"Wellington","Wellington",46.453056,-64.003011,0,0,0
461,"Rosehill","Rosehill",46.46835,-63.859798,0,0,0
462,"Abram-Village","Abram-Village",46.455008,-64.076711,0,0,0
463,"Tyne Valley","Tyne Valley",46.575055,-63.928768,0,0,0
464,"Urbainville","Urbainville",46.461585,-64.047795,0,0,0
465,"Birch Hill","Birch Hill",46.555292,-63.872437,0,0,0
466,"Port Hill","Port Hill",46.578859,-63.878063,0,0,0
467,"Arlington","Arlington",46.528617,-63.91217,0,0,0
468,"St-Hubert","St-Hubert",46.502832,-64.029799,0,0,0
469,"MacDougall","MacDougall",46.509327,-63.938764,0,0,0
470,"Richmond","Richmond",46.507536,-63.990998,0,0,0
471,"Bideford","Bideford",46.604741,-63.914487,0,0,0
472,"ELLERSLIE-BIDEFORD","ELLERSLIE-BIDEFORD",46.603625,-63.942801,0,0,0
473,"Freeland","Freeland",46.677399,-63.963105,0,0,0
474,"Conway","Conway",46.657809,-63.989144,0,0,0
476,"Springhill","Springhill",46.560438,-64.00541,0,0,0
477,"Mont-Carmel","Mont-Carmel",46.401405,-64.036974,0,0,0
478,"St. Nicholas","St. Nicholas",46.425513,-63.948093,0,0,0
479,"Maximeville","Maximeville",46.434466,-64.128209,0,0,0
480,"Cap-Egmont","Cap-Egmont",46.402266,-64.08956,0,0,1
481,"St. Chrysostome","St. Chrysostome",46.510179,-64.101179,0,0,1
482,"Northam","Northam",46.544629,-63.962388,0,0,0
483,"Poplar Grove","Poplar Grove",46.656486,-63.931505,0,0,0
484,"Inverness","Inverness",46.650598,-64.032312,0,0,0
485,"Mount Pleasant","Mount Pleasant",46.580645,-64.008714,0,0,0
486,"West Devon","West Devon",46.666904,-64.117023,0,0,0
487,"Portage","Portage",46.664341,-64.058491,0,0,0
488,"Coleman","Coleman",46.683974,-64.173252,0,0,0
489,"Foxley River","Foxley River",46.69238,-64.010372,0,0,0
490,"Cascumpec","Cascumpec",46.752996,-64.08936,0,0,0
491,"Fortune Cove","Fortune Cove",46.757337,-64.130479,0,0,0
492,"Bloomfield Corner","Bloomfield Corner",46.761907,-64.178847,0,0,0
493,"St. Anthony","St. Anthony",46.73567,-64.174429,0,0,0
494,"Piusville","Piusville",46.792366,-64.193361,0,0,0
495,"Elmsdale","Elmsdale",46.818985,-64.138695,0,0,0
496,"Rosebank","Rosebank",46.795396,-64.156802,0,0,0
497,"Knutsford","Knutsford",46.697835,-64.283447,0,0,0
498,"Springfield West","Springfield West",46.683942,-64.363986,0,0,0
499,"Cape Wolfe","Cape Wolfe",46.720677,-64.39325,0,0,0
500,"Glenwood","Glenwood",46.64759,-64.315522,0,0,0
501,"West Point","West Point",46.622981,-64.375626,0,0,0
502,"Dunblane","Dunblane",46.650267,-64.333645,0,0,0
503,"Milo","Milo",46.64832,-64.222521,0,0,0
504,"Brae","Brae",46.661948,-64.191933,0,0,0
505,"Brae Harbour","Brae Harbour",46.6167,-64.183297,0,0,0
506,"Campbellton","Campbellton",46.792108,-64.30309,0,0,0
507,"St. Louis","St. Louis",46.887252,-64.138826,0,0,0
508,"St. Edward","St. Edward",46.879846,-64.181731,0,0,0
509,"St. Lawrence","St. Lawrence",46.846914,-64.215299,0,0,0
510,"Pleasant View","Pleasant View",46.916699,-64.199997,0,0,0
511,"Palmer Road","Palmer Road",46.913187,-64.15943,0,0,0
512,"Skinners Pond","Skinners Pond",46.964911,-64.120361,0,0,0
513,"Tignish Corner","Tignish Corner",46.947933,-64.049071,0,0,0
514,"Nail Pond","Nail Pond",46.983299,-64.066704,0,0,0
515,"Seacow Pond","Seacow Pond",47.030916,-63.996967,0,0,0
516,"Norway","Norway",47.008882,-64.032334,0,0,0
517,"Tignish Shore","Tignish Shore",46.947512,-64.001269,0,0,0
518,"St. Felix","St. Felix",46.932026,-64.023289,0,0,0
519,"Anglo Tignish","Anglo Tignish",46.9833,-63.999998,0,0,0
520,"Greenmount","Greenmount",46.897892,-64.042552,0,0,0
521,"Montrose","Montrose",46.86657778,-64.06793333,0,0,0
522,"Alma","Alma",46.860959,-64.109025,0,0,0
523,"Leoville","Leoville",46.922488,-64.120631,0,0,0
524,"East Havre Boucher","East Havre Boucher",45.676964,-61.494524,0,0,0
525,"Aulds Cove","Aulds Cove",45.646434,-61.435926,0,0,0
526,"Pirate Harbour","Pirate Harbour",45.583545,-61.38669,0,0,0
527,"Middle Melford","Middle Melford",45.535218,-61.314123,0,0,0
528,"Sand Point","Sand Point",45.517906,-61.256058,0,0,0
529,"Steep Creek","Steep Creek",45.554152,-61.343932,0,0,0
530,"Hadleyville","Hadleyville",45.45987,-61.283252,0,0,0
531,"Manassette Lake","Manassette Lake",45.434106,-61.333369,0,0,0
532,"St. Francis Harbour","St. Francis Harbour",45.448657,-61.311548,0,0,0
533,"MacPherson Lake","MacPherson Lake",45.435048,-61.431503,0,0,0
534,"Port Shoreham","Port Shoreham",45.423177,-61.424944,0,0,0
535,"Boylston","Boylston",45.4333,-61.5,0,0,0
536,"Sunnyville","Sunnyville",45.388173,-61.535527,0,0,0
537,"Cooks Cove","Cooks Cove",45.365873,-61.487726,0,0,0
538,"Half Island Cove","Half Island Cove",45.346998,-61.200006,0,0,0
539,"Halfway Cove","Halfway Cove",45.34759,-61.366306,0,0,0
540,"Peas Brook","Peas Brook",45.35047,-61.314231,0,0,0
541,"Philips Harbour","Philips Harbour",45.347228,-61.239343,0,0,0
542,"Queensport","Queensport",45.337372,-61.265233,0,0,0
543,"Durells Island","Durells Island",45.343282,-61.005749,0,0,0
544,"Fox Island Main","Fox Island Main",45.340433,-61.103392,0,0,0
545,"Hazel Hill","Hazel Hill",45.324019,-61.031094,0,0,0
546,"Dover","Dover",45.28441,-61.048445,0,0,0
547,"Cole Harbour","Cole Harbour",45.257366,-61.271945,0,0,0
548,"Lower Whitehead","Lower Whitehead",45.218617,-61.180453,0,0,0
549,"Port Felix","Port Felix",45.25,-61.216702,0,0,0
550,"Upper Whitehead","Upper Whitehead",45.281473,-61.170622,0,0,0
551,"Whitehead","Whitehead",45.23333,-61.187171,0,0,0
552,"Charlos Cove","Charlos Cove",45.248457,-61.32957,0,0,0
553,"Larrys River","Larrys River",45.229971,-61.377967,0,0,0
554,"Tor Bay","Tor Bay",45.194967,-61.364234,0,0,0
555,"Lundy","Lundy",45.282193,-61.505916,0,0,0
556,"New Harbour","New Harbour",45.170374,-61.459639,0,0,0
557,"New Harbour East","New Harbour East",45.204435,-61.488232,0,0,0
558,"New Harbour West","New Harbour West",45.19447,-61.493469,0,0,0
559,"Upper New Harbour","Upper New Harbour",45.220461,-61.520482,0,0,0
560,"Coddles Harbour","Coddles Harbour",45.166432,-61.539366,0,0,0
561,"Drum Head","Drum Head",45.150001,-61.599997,0,0,0
562,"Seal Harbour","Seal Harbour",45.150002,-61.583302,0,0,0
563,"Goldboro","Goldboro",45.1833,-61.650001,0,0,0
564,"Isaacs Harbour","Isaacs Harbour",45.183301,-61.6667,0,0,0
565,"Isaacs Harbour North","Isaacs Harbour North",45.20225,-61.675576,0,0,0
566,"Erinville","Erinville",45.37443,-61.745547,0,0,0
567,"Salmon River Lake","Salmon River Lake",45.358646,-61.722315,0,0,0
568,"Guysborough Intervale","Guysborough Intervale",45.454215,-61.615192,0,0,0
569,"Havendale","Havendale",45.453099,-61.580749,0,0,0
570,"Lincolnville","Lincolnville",45.50718,-61.548981,0,0,0
571,"Roachvale","Roachvale",45.349998,-61.549998,0,0,0
572,"Middle Country Harbour","Middle Country Harbour",45.237423,-61.766805,0,0,0
573,"Country Harbour Lake","Country Harbour Lake",45.302166,-61.906007,0,0,0
574,"Cross Roads Country Harbour","Cross Roads Country Harbour",45.276729,-61.883832,0,0,0
575,"Bickerton West","Bickerton West",45.0964,-61.7315,0,0,0
576,"Fishermans Harbour","Fishermans Harbour",45.111363,-61.686482,0,0,0
577,"Port Bickerton","Port Bickerton",45.107058,-61.723834,0,0,0
578,"Indian Harbour Lake","Indian Harbour Lake",45.134547,-61.88229,0,0,0
579,"Port Hilford","Port Hilford",45.109499,-61.840184,0,0,0
580,"Harpellville","Harpellville",45.110257,-61.771561,0,0,0
581,"Wine Harbour","Wine Harbour",45.074472,-61.842544,0,0,0
582,"Sonora","Sonora",45.057209,-61.895998,0,0,0
583,"Sherbrooke","Sherbrooke",45.142926,-61.982547,0,0,0
584,"Goldenville","Goldenville",45.122851,-62.009406,0,0,0
585,"Aspen","Aspen",45.301369,-62.051468,0,0,0
586,"Glenelg","Glenelg",45.26122,-62.077423,0,0,0
587,"Melrose","Melrose",45.261132,-62.047138,0,0,0
588,"Goshen","Goshen",45.377693,-61.972529,0,0,0
589,"Lochaber","Lochaber",45.415814,-62.023197,0,0,1
590,"South Lochaber","South Lochaber",45.38298,-62.044416,0,0,0
591,"West Lochaber","West Lochaber",45.413345,-62.036013,0,0,0
592,"East River St. Marys","East River St. Marys",45.392667,-62.166667,0,0,0
593,"Caledonia","Caledonia",45.282,-62.392775,0,0,0
594,"Trafalgar","Trafalgar",45.284224,-62.66905,0,1,0
595,"Little Liscomb","Little Liscomb",45.027602,-61.973384,0,0,0
596,"Liscomb","Liscomb",45.021332,-62.000452,0,0,0
597,"Spanish Ship Bay","Spanish Ship Bay",45.029692,-62.032112,0,0,0
598,"Liscomb Mills","Liscomb Mills",45.0125,-62.101,0,0,0
599,"Marie Joseph","Marie Joseph",44.969402,-62.08521,0,0,0
600,"West Liscomb","West Liscomb",44.996716,-62.097396,0,0,0
601,"Ecum Secum","Ecum Secum",44.966701,-62.1333,0,0,0
602,"Ecum Secum Bridge","Ecum Secum Bridge",44.972,-62.1678,0,0,0
603,"Ecum Secum West","Ecum Secum West",44.959119,-62.165049,0,0,0
604,"East Quoddy","East Quoddy",44.916058,-62.32161,0,0,0
605,"Harrigan Cove","Harrigan Cove",44.925825,-62.298697,0,0,0
606,"West Quoddy","West Quoddy",44.916699,-62.349999,0,0,0
607,"Port Dufferin","Port Dufferin",44.916699,-62.383303,0,0,0
608,"Port Dufferin West","Port Dufferin West",44.903415,-62.40325,0,0,0
609,"Sheet Harbour Passage","Sheet Harbour Passage",44.858739,-62.44242,0,0,0
610,"Sober Island","Sober Island",44.8488,-62.4653,0,0,0
611,"East River Sheet Harbour","East River Sheet Harbour",44.920549,-62.513042,0,0,0
612,"West Sheet Harbour","West Sheet Harbour",44.912146,-62.541862,0,0,0
613,"Watt Section","Watt Section",44.900001,-62.483298,0,0,0
614,"Moosehead","Moosehead",44.945408,-62.264256,0,0,0
615,"Mooseland","Mooseland",44.949918,-62.799823,0,0,0
616,"Sheet Harbour Road","Sheet Harbour Road",45.122067,-62.900882,0,0,0
617,"Dean","Dean",45.200001,-62.883299,0,0,0
618,"Elmsvale","Elmsvale",45.085709,-63.071434,0,0,0
619,"Centre Musquodoboit","Centre Musquodoboit",45.099999,-63.033298,0,0,0
620,"Chaswood","Chaswood",45.045383,-63.216575,0,0,0
621,"Elderbank","Elderbank",44.983299,-63.216701,0,0,0
622,"Lower Meaghers Grant","Lower Meaghers Grant",44.918983,-63.240849,0,0,0
623,"Meaghers Grant","Meaghers Grant",44.934664,-63.237732,0,0,0
624,"Moose River Gold Mines","Moose River Gold Mines",44.985472,-62.941827,0,0,0
625,"Newcomb Corner","Newcomb Corner",45.068999,-63.046055,0,0,0
626,"Lochaber Mines","Lochaber Mines",45.005477,-62.475807,0,0,0
627,"Malay Falls","Malay Falls",44.98727,-62.482328,0,0,0
628,"Fern Hill","Fern Hill",44.821259,-62.636757,0,0,0
629,"Popes Harbour","Popes Harbour",44.8117,-62.6383,0,0,0
630,"Spry Bay","Spry Bay",44.837936,-62.587805,0,0,0
631,"Spry Harbour","Spry Harbour",44.833467,-62.627241,0,0,0
632,"East Ship Harbour","East Ship Harbour",44.781989,-62.810801,0,0,0
633,"Lower Ship Harbour","Lower Ship Harbour",44.783299,-62.833301,0,0,0
634,"Murphys Cove","Murphys Cove",44.787322,-62.747839,0,0,0
635,"Pleasant Harbour","Pleasant Harbour",44.789687,-62.719502,0,0,0
636,"Ship Harbour","Ship Harbour",44.816699,-62.883301,0,0,0
637,"Lake Charlotte","Lake Charlotte",44.766265,-62.945075,0,0,0
638,"Upper Lakeville","Upper Lakeville",44.789286,-62.970493,0,0,0
639,"Clam Bay","Clam Bay",44.7281,-62.9176,0,0,0
640,"Clam Harbour","Clam Harbour",44.734522,-62.881363,0,0,0
641,"DeBaies Cove","DeBaies Cove",44.755464,-62.808391,0,0,0
642,"Owls Head","Owls Head",44.733299,-62.833301,0,0,0
643,"Little Harbour","Little Harbour",44.710451,-62.839967,0,0,0
644,"East Jeddore","East Jeddore",44.729461,-63.002964,0,0,0
645,"Hartlin Settlement","Hartlin Settlement",44.7667,-63.000001,0,0,0
646,"Head of Jeddore","Head of Jeddore",44.777295,-63.071325,0,0,0
647,"Oyster Pond","Oyster Pond",44.786658,-63.005325,0,0,0
648,"Myers Point","Myers Point",44.769794,-63.039935,0,0,0
649,"Salmon River Bridge","Salmon River Bridge",44.77919,-63.02879,0,0,0
650,"Ostrea Lake","Ostrea Lake",44.720749,-63.085663,0,0,0
651,"Pleasant Point","Pleasant Point",44.690077,-63.068052,0,0,0
652,"West Jeddore","West Jeddore",44.7155,-63.0109,0,0,0
653,"East Petpeswick","East Petpeswick",44.764307,-63.14695,0,0,0
654,"Gaetz Brook","Gaetz Brook",44.76097,-63.217469,0,0,0
655,"Head of Chezzetcook","Head of Chezzetcook",44.742023,-63.24954,0,0,0
656,"East Chezzetcook","East Chezzetcook",44.721018,-63.234371,0,0,0
657,"Porter","Porter",44.749162,-63.292625,0,0,0
658,"Conrod Settlement","Conrod Settlement",44.766701,-63.233299,0,0,0
659,"Grand Desert","Grand Desert",44.690215,-63.257165,0,0,0
660,"Middle Porters Lake","Middle Porters Lake",44.699785,-63.305696,0,0,0
661,"Seaforth","Seaforth",44.671804,-63.256422,0,0,0
662,"Three Fathom Harbour","Three Fathom Harbour",44.65474,-63.291586,0,0,0
663,"Mineville","Mineville",44.691577,-63.37868,0,0,0
664,"Lawrencetown","Lawrencetown",44.665864,-63.373315,0,0,0
665,"Upper Lawrencetown","Upper Lawrencetown",44.682041,-63.452231,0,0,0
666,"Cow Bay","Cow Bay",44.623598,-63.420898,0,0,0
667,"South East Passage","South East Passage",44.601065,-63.467945,0,0,0
668,"Grahams Corner","Grahams Corner",44.682042,-63.545206,0,0,0
669,"Woodside","Woodside",44.653822,-63.545473,0,0,0
670,"Port Wallace","Port Wallace",44.702214,-63.54586,0,0,0
671,"Glen Moir","Glen Moir",44.72422,-63.674883,0,0,0
672,"Jollimore","Jollimore",44.629874,-63.606263,0,0,0
673,"Spryfield","Spryfield",44.616699,-63.616699,0,0,0
674,"Rockingham","Rockingham",44.680075,-63.659475,0,0,0
675,"Harrietsfield","Harrietsfield",44.571441,-63.636127,0,0,0
676,"Hammonds Plains Road","Hammonds Plains Road",44.725074,-63.742098,0,0,0
677,"Brookside","Brookside",44.554814,-63.719037,0,0,0
678,"Lakeside","Lakeside",44.635861,-63.701916,0,0,0
679,"Timberlea","Timberlea",44.664195,-63.751817,0,0,0
680,"Stillwater Lake","Stillwater Lake",44.700855,-63.838371,0,0,0
681,"Yankeetown","Yankeetown",44.722677,-63.82065,0,0,0
682,"English Corner","English Corner",44.733299,-63.7833,0,0,0
683,"Middle Sackville","Middle Sackville",44.783018,-63.692904,0,0,0
684,"Beaver Bank","Beaver Bank",44.799999,-63.683299,0,0,0
685,"Ketch Harbour","Ketch Harbour",44.492432,-63.551988,0,0,0
686,"Sambro Head","Sambro Head",44.4836,-63.5832,0,0,0
687,"Williamswood","Williamswood",44.517539,-63.64073,0,0,0
688,"Portuguese Cove","Portuguese Cove",44.5204,-63.5328,0,0,0
689,"Terence Bay","Terence Bay",44.466831,-63.716988,0,0,0
690,"Lower Prospect","Lower Prospect",44.453695,-63.725754,0,0,0
691,"Bayside","Bayside",44.527668,-63.806308,0,0,0
692,"Shad Bay","Shad Bay",44.524682,-63.785769,0,0,0
693,"Whites Lake","Whites Lake",44.528417,-63.760513,0,0,0
694,"East Dover","East Dover",44.494604,-63.847703,0,0,0
695,"McGraths Cove","McGraths Cove",44.506362,-63.850876,0,0,0
696,"West Dover","West Dover",44.490727,-63.871695,0,0,0
697,"Peggys Cove","Peggys Cove",44.492399,-63.91555,0,0,0
698,"Indian Harbour","Indian Harbour",44.5167,-63.9333,0,0,0
699,"Glen Margaret","Glen Margaret",44.5843,-63.9168,0,0,0
700,"Glen Haven","Glen Haven",44.642699,-63.909701,0,0,0
701,"Seabright","Seabright",44.610603,-63.925181,0,0,0
702,"Black Point","Black Point",44.649776,-63.982283,0,0,0
703,"Boutiliers Point","Boutiliers Point",44.662546,-63.950076,0,0,0
704,"Hubbards","Hubbards",44.638516,-64.053217,0,0,0
705,"Head of St. Margarets Bay","Head of St. Margarets Bay",44.682872,-63.915267,0,0,0
706,"Upper Tantallon","Upper Tantallon",44.689042,-63.886205,0,0,0
707,"Fall River West","Fall River West",44.801274,-63.632847,0,0,0
708,"Windsor Junction","Windsor Junction",44.783298,-63.633302,0,0,0
709,"Wellington Station","Wellington Station",44.858271,-63.61645,0,0,0
710,"Grand Lake","Grand Lake",44.894377,-63.586842,0,0,0
711,"Mill Cove","Mill Cove",44.589599,-64.064599,0,0,0
712,"Fox Point","Fox Point",44.614586,-64.060036,0,0,0
713,"Northwest Cove","Northwest Cove",44.528898,-64.02494,0,0,1
714,"Bayswater","Bayswater",44.501582,-64.067747,0,0,1
715,"Blandford","Blandford",44.485542,-64.110074,0,0,0
716,"Upper Blandford","Upper Blandford",44.516702,-64.116699,0,0,1
717,"Tancook Island","Tancook Island",44.466702,-64.166702,0,0,0
718,"Commons","Commons",44.55184,-64.230564,0,0,0
719,"East River","East River",44.588309,-64.16843,0,0,0
720,"Squid Cove","Squid Cove",44.583302,-64.199996,0,0,0
721,"Marriotts Cove","Marriotts Cove",44.556379,-64.270814,0,0,0
722,"Chester Basin","Chester Basin",44.566493,-64.308402,0,0,0
723,"Acadia","Acadia",44.557214,-64.342689,0,0,0
724,"Gold River","Gold River",44.541149,-64.316364,0,0,0
725,"Western Shore","Western Shore",44.52273,-64.307207,0,0,0
726,"Martins Point","Martins Point",44.493601,-64.314971,0,0,0
727,"Indian Point","Indian Point",44.460018,-64.316232,0,0,0
728,"Blockhouse","Blockhouse",44.446804,-64.412183,0,0,0
729,"New Ross","New Ross",44.737592,-64.456581,0,0,0
730,"Leville","Leville",44.750001,-64.416704,0,0,0
731,"Mill Road","Mill Road",44.783299,-64.449997,0,0,0
732,"New Russell","New Russell",44.766701,-64.416702,0,0,0
733,"Vaughan","Vaughan",44.816699,-64.233298,0,0,0
734,"Oakland","Oakland",44.451407,-64.366909,0,0,0
735,"Martins Brook","Martins Brook",44.408404,-64.338532,0,0,0
736,"Sunnybrook","Sunnybrook",44.412911,-64.336343,0,0,0
737,"Blue Rocks","Blue Rocks",44.354206,-64.243738,0,0,0
738,"Lunenburg","Lunenburg",44.37745,-64.316941,0,0,0
739,"First South","First South",44.372204,-64.34718,0,0,0
740,"Rhodes Corner","Rhodes Corner",44.377854,-64.4151,0,0,0
741,"Masons Beach","Masons Beach",44.364363,-64.336194,0,0,0
742,"Bayport","Bayport",44.323822,-64.316675,0,0,1
743,"Rose Bay","Rose Bay",44.299264,-64.304115,0,0,0
744,"Riverport","Riverport",44.298796,-64.329878,0,0,0
745,"Kingsburg","Kingsburg",44.276347,-64.262643,0,0,1
746,"Dublin Shore","Dublin Shore",44.269164,-64.366048,0,0,0
747,"LaHave","LaHave",44.294273,-64.36094,0,0,0
748,"Mount Pleasant","Mount Pleasant",44.28569,-64.426601,0,0,0
749,"Pentz","Pentz",44.302454,-64.395784,0,0,0
750,"West Dublin","West Dublin",44.253285,-64.399618,0,0,0
751,"Bush Island","Bush Island",44.235645,-64.370571,0,0,0
752,"Heckmans Island","Heckmans Island",44.383301,-64.25,0,0,0
753,"Feltzen South","Feltzen South",44.329454,-64.286112,0,0,1
754,"Pleasantville","Pleasantville",44.33977,-64.442253,0,0,0
755,"Upper LaHave","Upper LaHave",44.36711,-64.44469,0,0,0
756,"Oakhill","Oakhill",44.397162,-64.500947,0,0,0
757,"Dayspring","Dayspring",44.375379,-64.480896,0,0,0
758,"Maitland","Maitland",44.426758,-64.457526,0,0,0
759,"Hebbville","Hebbville",44.355451,-64.537581,0,0,0
760,"Newcombville","Newcombville",44.380389,-64.622276,0,0,0
761,"Mossman Corner","Mossman Corner",44.444941,-64.584441,0,0,0
762,"Pinehurst","Pinehurst",44.499999,-64.650001,0,0,0
763,"Bakers Settlement","Bakers Settlement",44.398732,-64.679869,0,0,0
764,"Midville Branch","Midville Branch",44.423663,-64.636965,0,0,0
765,"Barss Corner","Barss Corner",44.5667,-64.683294,0,0,0
766,"Union Square","Union Square",44.551152,-64.641323,0,0,0
767,"Elmwood","Elmwood",44.583302,-64.633301,0,0,0
768,"North River","North River",44.6167,-64.7667,0,0,0
769,"Springfield","Springfield",44.630223,-64.860683,0,0,0
770,"Hemford","Hemford",44.506019,-64.792891,0,0,0
771,"Pleasant River","Pleasant River",44.438981,-64.881842,0,0,1
772,"North Brookfield","North Brookfield",44.407707,-64.95577,0,0,0
773,"Acadia","Acadia",44.354184,-64.920122,0,0,0
774,"Caledonia","Caledonia",44.372859,-65.028928,0,0,0
775,"South Brookfield","South Brookfield",44.383301,-64.966698,0,0,0
776,"Maitland Bridge","Maitland Bridge",44.439926,-65.193589,0,0,1
777,"Meagher","Meagher",44.400001,-65.050001,0,0,0
778,"Chelsea","Chelsea",44.366745,-64.755386,0,0,0
779,"Hebbs Cross","Hebbs Cross",44.299999,-64.566703,0,0,0
780,"Italy Cross","Italy Cross",44.266701,-64.550003,0,0,0
781,"Petite Rivière","Petite Rivière",44.227619,-64.452572,0,0,1
782,"Broad Cove","Broad Cove",44.183301,-64.483299,0,0,0
783,"Voglers Cove","Voglers Cove",44.157485,-64.534822,0,0,0
784,"Cherry Hill","Cherry Hill",44.151246,-64.49372,0,0,0
785,"Charleston","Charleston",44.164181,-64.661791,0,0,0
786,"Danesville","Danesville",44.192773,-64.621418,0,0,0
787,"East Port Medway","East Port Medway",44.155682,-64.571734,0,0,0
788,"Mill Village","Mill Village",44.145171,-64.647233,0,0,0
789,"Port Medway","Port Medway",44.125543,-64.576405,0,0,0
790,"Beach Meadows","Beach Meadows",44.064518,-64.637455,0,0,0
791,"Mount Pleasant","Mount Pleasant",44.033299,-64.699998,0,0,0
792,"Moose Harbour","Moose Harbour",44.016701,-64.666701,0,0,0
793,"Hunts Point","Hunts Point",43.954745,-64.777714,0,0,0
794,"Summerville Centre","Summerville Centre",43.955362,-64.808395,0,0,0
795,"White Point","White Point",43.962253,-64.745258,0,0,0
796,"Port Mouton","Port Mouton",43.926836,-64.847605,0,0,0
797,"Central Port Mouton","Central Port Mouton",43.912402,-64.839776,0,0,0
798,"South West Port Mouton","South West Port Mouton",43.896544,-64.811478,0,0,0
799,"Port Joli","Port Joli",43.880504,-64.906162,0,0,0
800,"St. Catherines River","St. Catherines River",43.852735,-64.854961,0,0,0
801,"Sable River","Sable River",43.840285,-65.059441,0,0,0
802,"Little Harbour","Little Harbour",43.7168,-65.0359,0,0,0
803,"Louis Head","Louis Head",43.75,-65.0167,0,0,0
804,"Allendale","Allendale",43.751024,-65.093177,0,0,0
805,"Lydgate","Lydgate",43.719904,-65.123803,0,0,0
806,"East Jordan","East Jordan",43.766701,-65.216698,0,0,0
807,"Birchtown","Birchtown",43.749999,-65.3833,0,0,0
808,"Churchover","Churchover",43.717451,-65.36566,0,0,0
809,"Gunning Cove","Gunning Cove",43.6833,-65.350001,0,0,1
810,"Ingomar","Ingomar",43.561407,-65.356239,0,0,1
811,"Roseway","Roseway",43.631827,-65.345968,0,0,1
812,"North East Harbour","North East Harbour",43.549645,-65.392017,0,0,1
813,"Port Clyde","Port Clyde",43.599998,-65.466697,0,0,0
814,"Upper Port La Tour","Upper Port La Tour",43.513186,-65.467103,0,0,0
815,"Baccaro","Baccaro",43.476272,-65.47153,0,0,0
816,"Port La Tour","Port La Tour",43.499998,-65.477263,0,0,0
817,"East Baccaro","East Baccaro",43.460552,-65.467908,0,0,0
818,"West Baccaro","West Baccaro",43.462154,-65.488477,0,0,0
819,"North East Point","North East Point",43.510251,-65.604414,0,0,0
820,"South Side","South Side",43.442092,-65.600384,0,0,1
821,"Stoney Island","Stoney Island",43.467198,-65.56944,0,0,1
822,"The Hawk","The Hawk",43.416109,-65.619106,0,0,1
823,"Newellton","Newellton",43.466701,-65.633302,0,0,1
824,"Barrington Head","Barrington Head",43.5669,-65.5792,0,0,0
825,"Barrington Passage","Barrington Passage",43.526185,-65.610611,0,0,0
826,"Brass Hill","Brass Hill",43.553191,-65.600343,0,0,0
827,"Crowell","Crowell",43.541275,-65.606397,0,0,0
828,"Doctors Cove","Doctors Cove",43.520019,-65.630612,0,0,0
829,"Central Woods Harbour","Central Woods Harbour",43.55,-65.7333,0,0,0
830,"Upper Woods Harbour","Upper Woods Harbour",43.583303,-65.750001,0,0,0
831,"Centre East Pubnico","Centre East Pubnico",43.633301,-65.766699,0,0,0
832,"East Pubnico","East Pubnico",43.671654,-65.761533,0,0,0
833,"Lower West Pubnico","Lower West Pubnico",43.633301,-65.800003,0,0,0
834,"Middle East Pubnico","Middle East Pubnico",43.650002,-65.766703,0,0,0
835,"Middle West Pubnico","Middle West Pubnico",43.651429,-65.803072,0,0,0
836,"Pubnico","Pubnico",43.700001,-65.783304,0,0,0
837,"Upper West Pubnico","Upper West Pubnico",43.680592,-65.793357,0,0,0
838,"West Pubnico","West Pubnico",43.66722,-65.799647,0,0,0
839,"Lower East Pubnico","Lower East Pubnico",43.613768,-65.771392,0,0,0
840,"Lower Argyle","Lower Argyle",43.733298,-65.833297,0,0,0
841,"Central Argyle","Central Argyle",43.774249,-65.841196,0,0,0
842,"Argyle","Argyle",43.793877,-65.855036,0,0,0
843,"Amiraults Hill","Amiraults Hill",43.814911,-65.982041,0,0,0
844,"Sluice Point","Sluice Point",43.791379,-65.966777,0,0,0
845,"Tusket","Tusket",43.853975,-65.973877,0,0,0
846,"Belleville","Belleville",43.856245,-65.92651,0,0,0
847,"Ste. Anne du Ruisseau","Ste. Anne du Ruisseau",43.837196,-65.928428,0,0,0
848,"Arcadia","Arcadia",43.823792,-66.06018,0,0,0
849,"Rockville","Rockville",43.775304,-66.115122,0,0,0
850,"Pinkneys Point","Pinkneys Point",43.716982,-66.064686,0,0,0
851,"Milton Highlands","Milton Highlands",43.855914,-66.122491,0,0,0
852,"Central Chebogue","Central Chebogue",43.789719,-66.089711,0,0,1
853,"Dayton","Dayton",43.873492,-66.103484,0,0,0
854,"Hebron","Hebron",43.888388,-66.091395,0,0,0
855,"Brooklyn","Brooklyn",43.866698,-66.083296,0,0,0
856,"South Ohio","South Ohio",43.922475,-66.0646,0,0,0
857,"Darlings Lake","Darlings Lake",43.955591,-66.133135,0,0,0
858,"Sandford","Sandford",43.920208,-66.147634,0,0,1
859,"Deerfield","Deerfield",43.952912,-65.993968,0,0,0
860,"Gavelton","Gavelton",43.897559,-65.951236,0,0,1
861,"Port Maitland","Port Maitland",43.987153,-66.148602,0,0,0
862,"Beaver River","Beaver River",44.014344,-66.149255,0,0,0
863,"Lake Doucette","Lake Doucette",44.057761,-66.139932,0,0,0
864,"Salmon River","Salmon River",44.052322,-66.159708,0,0,0
865,"East Quinan","East Quinan",43.925825,-65.806745,0,0,0
866,"Quinan","Quinan",43.918818,-65.827032,0,0,0
867,"South Quinan","South Quinan",43.918617,-65.800498,0,0,0
868,"Springhaven","Springhaven",43.901378,-65.871782,0,0,0
869,"Carleton","Carleton",44.008728,-65.934889,0,0,0
870,"Kemptville","Kemptville",44.053555,-65.831808,0,0,0
871,"Corberrie","Corberrie",44.237713,-65.924595,0,0,0
872,"Forest Glen","Forest Glen",44.083302,-65.916702,0,0,0
873,"Havelock","Havelock",44.306537,-65.921709,0,0,0
874,"New Tusket","New Tusket",44.284918,-65.904581,0,0,0
875,"Richfield","Richfield",44.118631,-65.929144,0,0,0
876,"Lake Annis","Lake Annis",44.05,-66.000001,0,0,0
877,"Hectanooga","Hectanooga",44.091828,-66.029418,0,0,0
878,"Brazil Lake","Brazil Lake",43.991532,-66.001042,0,0,0
879,"Mavillette","Mavillette",44.10135,-66.185211,0,0,0
880,"Cape St. Marys","Cape St. Marys",44.087231,-66.210124,0,0,0
881,"St. Alphonse","St. Alphonse",44.134189,-66.174207,0,0,0
882,"Meteghan Centre","Meteghan Centre",44.19565,-66.147283,0,0,0
883,"Meteghan River","Meteghan River",44.219415,-66.1432,0,0,0
884,"Lower Saulnierville","Lower Saulnierville",44.233299,-66.1333,0,0,0
885,"Meteghan Station","Meteghan Station",44.205134,-66.092098,0,0,0
886,"Saulnierville Station","Saulnierville Station",44.25,-66.099998,0,0,0
887,"Freeport","Freeport",44.282963,-66.318027,0,0,0
888,"Westport","Westport",44.262451,-66.354304,0,0,0
889,"Comeauville","Comeauville",44.285981,-66.130768,0,0,0
890,"Concession","Concession",44.289221,-66.070487,0,0,0
891,"Little Brook","Little Brook",44.302632,-66.121303,0,0,0
892,"Church Point","Church Point",44.337834,-66.113618,0,0,0
893,"East Ferry","East Ferry",44.39457,-66.201596,0,0,1
894,"Tiverton","Tiverton",44.390892,-66.216531,0,0,0
895,"Little River","Little River",44.445162,-66.145279,0,0,1
896,"Sandy Cove","Sandy Cove",44.491725,-66.089137,0,0,0
897,"Centreville","Centreville",44.550463,-66.025317,0,0,0
898,"Rossway","Rossway",44.580229,-65.91524,0,0,0
899,"Belliveaus Cove","Belliveaus Cove",44.386828,-66.060057,0,0,0
900,"Grosses Coques","Grosses Coques",44.357676,-66.101885,0,0,0
901,"St. Bernard","St. Bernard",44.403922,-66.037531,0,0,0
902,"Gilberts Cove","Gilberts Cove",44.485393,-65.941418,0,0,0
903,"Weymouth North","Weymouth North",44.440204,-65.992686,0,0,0
904,"Weymouth Falls","Weymouth Falls",44.401422,-65.957271,0,0,0
905,"Plympton","Plympton",44.504616,-65.917102,0,0,0
906,"Barton","Barton",44.535328,-65.872454,0,0,0
907,"Hassett","Hassett",44.349998,-65.933295,0,0,0
908,"Weaver Settlement","Weaver Settlement",44.383301,-65.966697,0,0,0
909,"Doucetteville","Doucetteville",44.448439,-65.823137,0,0,0
910,"Marshalltown","Marshalltown",44.581474,-65.809327,0,0,0
911,"Seabrook","Seabrook",44.610253,-65.808944,0,0,0
912,"Jordantown","Jordantown",44.58897,-65.775797,0,0,0
913,"Roxville","Roxville",44.609488,-65.868213,0,0,0
914,"Bay View","Bay View",44.680244,-65.774647,0,0,0
915,"Victoria Beach","Victoria Beach",44.676485,-65.752534,0,0,1
916,"Smiths Cove","Smiths Cove",44.608972,-65.71254,0,0,0
917,"Bear River","Bear River",44.575189,-65.636027,0,0,0
919,"North Kemptville","North Kemptville",44.082901,-65.834028,0,0,0
920,"Cornwallis Park","Cornwallis Park",44.649904,-65.629098,0,0,0
921,"Clementsport","Clementsport",44.665017,-65.610419,0,0,0
922,"Port Royal","Port Royal",44.717619,-65.602583,0,0,1
923,"Upper Clements","Upper Clements",44.696778,-65.582862,0,0,0
924,"Delaps Cove","Delaps Cove",44.765313,-65.636959,0,0,1
925,"Clementsvale","Clementsvale",44.618236,-65.563481,0,0,1
926,"Virginia East","Virginia East",44.632226,-65.506171,0,0,1
927,"Bear River","Bear River",44.705899,-65.502435,0,0,0
928,"Lequille","Lequille",44.732647,-65.493174,0,0,0
929,"Granville Ferry","Granville Ferry",44.755431,-65.525129,0,0,0
930,"Parkers Cove","Parkers Cove",44.817681,-65.51808,0,0,1
931,"Round Hill","Round Hill",44.769653,-65.408258,0,0,0
932,"Moschelle","Moschelle",44.753925,-65.466692,0,0,0
933,"Hillsburn","Hillsburn",44.8,-65.566704,0,0,1
934,"Litchfield","Litchfield",44.7833,-65.6,0,0,1
935,"Granville Centre","Granville Centre",44.785836,-65.450657,0,0,0
936,"Belleisle","Belleisle",44.80215,-65.403874,0,0,0
937,"Centrelea","Centrelea",44.8167,-65.316703,0,0,0
938,"Tupperville","Tupperville",44.8,-65.366699,0,0,0
939,"Phinneys Cove","Phinneys Cove",44.885442,-65.395248,0,0,1
940,"Youngs Cove","Youngs Cove",44.866699,-65.433296,0,0,1
941,"Carleton Corner","Carleton Corner",44.834813,-65.297487,0,0,0
942,"West Paradise","West Paradise",44.854095,-65.222624,0,0,0
943,"Paradise","Paradise",44.869368,-65.217563,0,0,0
944,"Hampton","Hampton",44.904794,-65.34933,0,0,1
945,"Port Lorne","Port Lorne",44.946592,-65.264758,0,0,0
946,"Lawrencetown","Lawrencetown",44.876023,-65.155402,0,0,0
947,"Falkland Ridge","Falkland Ridge",44.671883,-64.855799,0,0,0
948,"Albany","Albany",44.800034,-65.056964,0,0,0
949,"Nictaux","Nictaux",44.926031,-65.047958,0,0,0
950,"Nictaux Falls","Nictaux Falls",44.909569,-65.031644,0,0,0
951,"Brickton","Brickton",44.908655,-65.124596,0,0,0
952,"Port George","Port George",45.004005,-65.157578,0,0,0
953,"Melvern Square","Melvern Square",44.983299,-64.9833,0,0,0
954,"Albany Cross","Albany Cross",44.721123,-65.022808,0,0,0
955,"South Farmington","South Farmington",44.961486,-64.998294,0,0,0
956,"Aylesford","Aylesford",45.029077,-64.840676,0,0,0
957,"Auburn","Auburn",45.019438,-64.87021,0,0,0
958,"Millville","Millville",44.99535,-64.816638,0,0,0
959,"Morristown","Morristown",44.98576,-64.76756,0,0,0
960,"Morden","Morden",45.102632,-64.944549,0,0,0
961,"Harbourville","Harbourville",45.150318,-64.804348,0,0,0
962,"Somerset","Somerset",45.073369,-64.749888,0,0,0
963,"Black Rock","Black Rock",45.16978735,-64.7564681,0,0,1
964,"Canada Creek","Canada Creek",45.170315,-64.74301,0,0,1
965,"Waterville","Waterville",45.054069,-64.672352,0,0,0
966,"Cambridge","Cambridge",45.05792,-64.635755,0,0,0
967,"Kinsmans Corner","Kinsmans Corner",45.099409,-64.6588,0,0,1
969,"Berwick West","Berwick West",45.031275,-64.748616,0,0,0
970,"Weston","Weston",45.058426,-64.792518,0,0,0
971,"Lake George","Lake George",44.922628,-64.69569,0,0,0
972,"Lake Paul","Lake Paul",44.86696,-64.67755,0,0,0
973,"East Dalhousie","East Dalhousie",44.713346,-64.743015,0,0,0
974,"Forties","Forties",44.731572,-64.564571,0,0,0
975,"Lake Ramsay","Lake Ramsay",44.753051,-64.522803,0,0,0
976,"Aldersville","Aldersville",44.8167,-64.5,0,0,0
977,"Forest Home","Forest Home",44.9333,-64.516702,0,0,0
978,"Welton Landing","Welton Landing",44.991279,-64.530252,0,0,0
979,"South Alton","South Alton",45.01736,-64.536168,0,0,0
980,"North Alton","North Alton",45.050395,-64.524229,0,0,0
981,"Coldbrook","Coldbrook",45.058872,-64.59142,0,0,0
982,"Shubenacadie","Shubenacadie",44.843401,-64.415049,0,0,0
983,"Lakeville","Lakeville",45.109052,-64.609203,0,0,0
984,"Centreville","Centreville",45.134608,-64.528177,0,0,0
985,"Halls Harbour","Halls Harbour",45.200001,-64.6167,0,0,0
986,"Steam Mill","Steam Mill",45.109562,-64.513954,0,0,0
987,"Port Williams","Port Williams",45.097876,-64.409635,0,0,0
988,"Greenwich","Greenwich",45.08417,-64.39936,0,0,0
989,"Kingsport","Kingsport",45.160651,-64.362309,0,0,0
990,"Sheffield Mills","Sheffield Mills",45.150303,-64.475666,0,0,0
991,"Scots Bay","Scots Bay",45.306332,-64.398158,0,0,1
992,"Lower Blomidon","Lower Blomidon",45.249312,-64.359408,0,0,0
993,"Habitant","Habitant",45.152532,-64.396011,0,0,0
994,"Upper Canard","Upper Canard",45.125847,-64.468448,0,0,0
995,"Green Acres","Green Acres",45.00179,-64.917519,0,0,0
996,"South Greenwood","South Greenwood",44.972505,-64.878974,0,0,0
997,"Baxters Harbour","Baxters Harbour",45.226026,-64.516214,0,0,0
998,"Gaspereau","Gaspereau",45.067712,-64.353235,0,0,0
999,"White Rock","White Rock",45.051145,-64.413037,0,0,0
1000,"Avonport","Avonport",45.099255,-64.255121,0,0,0
1001,"Grand Pré","Grand Pré",45.104174,-64.307294,0,0,0
1002,"North Grand Pré","North Grand Pré",45.136652,-64.314638,0,0,1
1003,"Summerville","Summerville",45.1,-64.166703,0,0,0
1004,"Hants Border","Hants Border",45.071744,-64.190638,0,0,0
1005,"Kempt Shore","Kempt Shore",45.128519,-64.191214,0,0,0
1006,"St. Croix","St. Croix",44.962607,-64.030799,0,0,0
1007,"Newport Corner","Newport Corner",44.965965,-63.977021,0,0,0
1008,"Scotch Village","Scotch Village",45.056929,-64.000853,0,0,0
1009,"Centre Burlington","Centre Burlington",45.0667,-64.099999,0,0,0
1010,"Ellershouse","Ellershouse",44.944737,-64.006666,0,0,0
1011,"Lakelands","Lakelands",44.922977,-63.890929,0,0,0
1012,"Windsor Forks","Windsor Forks",44.941046,-64.187801,0,0,0
1013,"Smiths Corner","Smiths Corner",44.847149,-64.223631,0,0,0
1014,"Canaan","Canaan",44.676378,-64.243399,0,0,0
1015,"Chester Grant","Chester Grant",44.612539,-64.322527,0,0,0
1016,"Windsor Road","Windsor Road",44.609551,-64.271949,0,0,0
1017,"Mosherville","Mosherville",45.072633,-63.954356,0,0,0
1018,"Stanley","Stanley",45.088338,-63.923461,0,0,0
1019,"Bramber","Bramber",45.181191,-64.148869,0,0,0
1020,"Cheverie","Cheverie",45.162212,-64.161123,0,0,0
1021,"Cambridge","Cambridge",45.201297,-64.105179,0,0,0
1022,"Pembroke","Pembroke",45.218646,-64.06525,0,0,0
1023,"East Walton","East Walton",45.256042,-63.942052,0,0,1
1024,"Minasville","Minasville",45.283299,-63.8167,0,0,1
1025,"Gormanville","Gormanville",45.255285,-63.752823,0,0,0
1026,"East Noel","East Noel",45.303996,-63.697818,0,0,0
1027,"Five Mile River","Five Mile River",45.221844,-63.607179,0,0,0
1028,"Northfield","Northfield",45.25,-63.683298,0,0,0
1029,"Upper Kennetcook","Upper Kennetcook",45.200002,-63.650003,0,0,0
1030,"Noel Road","Noel Road",45.204868,-63.738065,0,0,0
1031,"North Noel Road","North Noel Road",45.225072,-63.743667,0,0,0
1032,"Lower Selma","Lower Selma",45.313295,-63.604933,0,0,0
1033,"Maitland","Maitland",45.317402,-63.495073,0,0,0
1034,"Noel Shore","Noel Shore",45.312566,-63.6331,0,0,0
1035,"Selma","Selma",45.321007,-63.539874,0,0,0
1036,"Stirling Brook","Stirling Brook",45.312334,-63.561996,0,0,0
1037,"Latties Brook","Latties Brook",45.236831,-63.570567,0,0,0
1038,"Gore","Gore",45.121848,-63.715185,0,0,0
1039,"Upper Rawdon","Upper Rawdon",45.067147,-63.712562,0,0,0
1040,"Upper Nine Mile River","Upper Nine Mile River",45.079968,-63.628864,0,0,0
1041,"Barr Settlement","Barr Settlement",45.136252,-63.619437,0,0,0
1042,"Centre Rawdon","Centre Rawdon",45.048891,-63.843399,0,0,0
1043,"Rawdon Gold Mines","Rawdon Gold Mines",45.054715,-63.763887,0,0,0
1044,"West Gore","West Gore",45.093612,-63.77943,0,0,0
1045,"Clarksville","Clarksville",45.099998,-63.8333,0,0,0
1046,"Ashdale","Ashdale",45.011826,-63.92594,0,0,1
1047,"Upper Sackville","Upper Sackville",44.799559,-63.727752,0,0,0
1048,"Milford Station","Milford Station",45.049998,-63.433299,0,0,0
1049,"Admiral Rock","Admiral Rock",45.168834,-63.407425,0,0,0
1050,"Brookfield","Brookfield",45.256662,-63.279071,0,0,0
1052,"Truro","Truro",45.363377,-63.276292,0,0,0
1053,"North River","North River",45.425188,-63.254637,0,0,0
1054,"Truro Heights","Truro Heights",45.355279,-63.317099,0,0,0
1055,"Masstown","Masstown",45.385479,-63.478564,0,0,0
1056,"Central Onslow","Central Onslow",45.375887,-63.367934,0,0,0
1057,"Belmont","Belmont",45.425766,-63.386393,0,0,0
1058,"Bass River","Bass River",45.414537,-63.782366,0,0,0
1059,"Five Houses","Five Houses",45.397185,-63.735438,0,0,0
1060,"Portapique","Portapique",45.402415,-63.701592,0,0,0
1061,"Alton","Alton",45.191073,-63.30452,0,0,0
1062,"Old Barns","Old Barns",45.345336,-63.403587,0,0,0
1063,"Beaver Brook","Beaver Brook",45.317283,-63.418222,0,0,0
1064,"Folly Lake","Folly Lake",45.549999,-63.549999,0,0,0
1065,"Earltown","Earltown",45.576269,-63.137014,0,0,0
1066,"Kemptown","Kemptown",45.469676,-63.073385,0,0,0
1067,"Salt Springs","Salt Springs",45.536988,-62.895714,0,0,0
1068,"East Mountain","East Mountain",45.421013,-63.180641,0,0,0
1069,"Lower Five Islands","Lower Five Islands",45.412705,-64.095866,0,0,0
1070,"Five Islands","Five Islands",45.411273,-64.039431,0,0,0
1071,"Lower Economy","Lower Economy",45.401599,-63.987573,0,0,0
1072,"Greenhill","Greenhill",45.386818,-64.259303,0,0,0
1073,"Green Oaks","Green Oaks",45.251344,-63.439979,0,0,0
1074,"South Maitland","South Maitland",45.252403,-63.470625,0,0,0
1075,"Upper Stewiacke","Upper Stewiacke",45.223444,-62.992822,0,0,0
1076,"Cross Roads","Cross Roads",45.234823,-62.943041,0,0,0
1077,"Springside","Springside",45.281017,-62.890089,0,0,0
1078,"Middle Stewiacke","Middle Stewiacke",45.223753,-63.137462,0,0,0
1079,"South Branch","South Branch",45.168387,-63.086481,0,0,0
1080,"Valley","Valley",45.381582,-63.194786,0,0,0
1081,"Murray Siding","Murray Siding",45.365561,-63.206405,0,0,0
1082,"Wentworth","Wentworth",45.650001,-63.55,0,0,0
1083,"Collingwood Corner","Collingwood Corner",45.605284,-63.93707,0,0,0
1084,"Athol Road","Athol Road",45.63505,-64.076854,0,0,0
1085,"Wentworth Valley","Wentworth Valley",45.617459,-63.558203,0,0,0
1086,"Westchester Station","Westchester Station",45.620635,-63.65875,0,0,0
1087,"Diligent River","Diligent River",45.4117,-64.459257,0,0,1
1088,"Fox River","Fox River",45.41057,-64.530203,0,0,0
1089,"Port Greville","Port Greville",45.408602,-64.54419,0,0,0
1090,"Spencers Island","Spencers Island",45.356961,-64.712602,0,0,0
1091,"East Advocate","East Advocate",45.330392,-64.75992,0,0,0
1092,"West Advocate","West Advocate",45.349999,-64.816702,0,0,0
1093,"New Salem","New Salem",45.422111,-64.790815,0,0,1
1094,"Apple River","Apple River",45.461004,-64.784915,0,0,1
1095,"Sand River","Sand River",45.538252,-64.678378,0,0,0
1096,"Shulie","Shulie",45.599999,-64.566703,0,1,0
1097,"Joggins","Joggins",45.693551,-64.442291,0,0,0
1098,"River Hebert East","River Hebert East",45.700797,-64.3596,0,0,0
1099,"Minudie","Minudie",45.774102,-64.352064,0,0,0
1100,"Athol","Athol",45.672291,-64.217106,0,0,0
1101,"Chignecto","Chignecto",45.734557,-64.214254,0,0,1
1102,"Maccan","Maccan",45.726984,-64.250836,0,0,0
1103,"Southampton","Southampton",45.590153,-64.250557,0,0,0
1104,"Halfway River","Halfway River",45.520076,-64.346542,0,0,1
1105,"Harrison Settlement","Harrison Settlement",45.518404,-64.393364,0,0,0
1106,"Mapleton","Mapleton",45.586396,-64.145783,0,0,0
1107,"Fenwick","Fenwick",45.762532,-64.18643,0,0,0
1108,"Nappan","Nappan",45.767028,-64.237809,0,0,0
1109,"Brookdale","Brookdale",45.80469,-64.163172,0,0,0
1110,"East Amherst","East Amherst",45.849998,-64.183296,0,0,0
1111,"Jacksons Point","Jacksons Point",45.99769,-64.037685,0,0,0
1112,"Seagrove","Seagrove",45.995496,-63.984856,0,0,0
1113,"Tidnish Cross Roads","Tidnish Cross Roads",45.98903,-64.008676,0,0,0
1114,"Amherst Shore","Amherst Shore",45.974807,-63.901156,0,0,0
1115,"Lorneville","Lorneville",45.987377,-63.940286,0,0,0
1116,"East Linden","East Linden",45.904381,-63.818484,0,0,0
1117,"Heather Beach","Heather Beach",45.874259,-63.758955,0,0,0
1118,"Truemanville","Truemanville",45.856106,-64.073988,0,0,0
1119,"Amherst Head","Amherst Head",45.889191,-63.989671,0,0,0
1120,"Port Howe","Port Howe",45.855451,-63.749611,0,0,0
1121,"Port Philip","Port Philip",45.845693,-63.729833,0,0,0
1122,"Upper Gulf Shore","Upper Gulf Shore",45.877216,-63.616538,0,0,0
1123,"South Pugwash","South Pugwash",45.8333,-63.6333,0,0,0
1124,"Lower Gulf Shore","Lower Gulf Shore",45.87369,-63.555532,0,0,0
1125,"Wallace Bridge","Wallace Bridge",45.812677,-63.514573,0,0,0
1126,"North Wallace","North Wallace",45.832611,-63.483833,0,0,0
1127,"Middleboro","Middleboro",45.763747,-63.568335,0,0,0
1128,"Malagash","Malagash",45.772567,-63.376425,0,0,0
1129,"Malagash Mine","Malagash Mine",45.792341,-63.325342,0,0,0
1130,"South Shore","South Shore",45.76841,-63.323762,0,0,0
1131,"Bayhead","Bayhead",45.743716,-63.373522,0,0,0
1132,"French River","French River",45.715285,-63.333004,0,0,0
1133,"Brule Shore","Brule Shore",45.742246,-63.238567,0,0,0
1134,"Brule Point","Brule Point",45.75775,-63.208529,0,0,0
1135,"Brule","Brule",45.746876,-63.157476,0,0,0
1136,"Brule Corner","Brule Corner",45.740625,-63.1773,0,0,0
1137,"The Falls","The Falls",45.64033,-63.222278,0,0,0
1138,"Balfron","Balfron",45.669728,-63.232687,0,0,0
1139,"West New Annan","West New Annan",45.639201,-63.362134,0,0,0
1140,"Oliver","Oliver",45.653976,-63.315435,0,0,0
1141,"Marshville","Marshville",45.754075,-63.115805,0,0,0
1142,"Welsford","Welsford",45.7289,-63.056321,0,0,0
1143,"Melville","Melville",45.788377,-63.029214,0,0,0
1144,"Seafoam","Seafoam",45.784356,-62.972492,0,0,0
1145,"Toney River","Toney River",45.770926,-62.89194,0,0,0
1146,"Caribou River","Caribou River",45.762795,-62.823244,0,0,0
1147,"Caribou Island","Caribou Island",45.756848,-62.739475,0,0,0
1148,"Waterside","Waterside",45.755336,-62.776285,0,0,0
1150,"Pictou Landing","Pictou Landing",45.668078,-62.686834,0,0,0
1151,"Chance Harbour","Chance Harbour",45.666698,-62.5833,0,0,0
1152,"Hillside","Hillside",45.630513,-62.641016,0,0,0
1153,"Priestville","Priestville",45.571715,-62.624375,0,0,0
1154,"Abercrombie","Abercrombie",45.629116,-62.684904,0,0,0
1155,"Alma","Alma",45.579242,-62.76091,0,0,0
1156,"Durham","Durham",45.618617,-62.810047,0,0,0
1157,"Lyons Brook","Lyons Brook",45.67058,-62.77937,0,0,0
1158,"Scotsburn","Scotsburn",45.651529,-62.853933,0,0,0
1159,"Haliburton","Haliburton",45.677889,-62.746141,0,0,0
1160,"Eureka","Eureka",45.5,-62.683298,0,0,0
1161,"Riverton","Riverton",45.526751,-62.674044,0,0,0
1162,"Sundridge","Sundridge",45.71012,-62.849222,0,0,0
1163,"Three Brooks","Three Brooks",45.719249,-62.786262,0,0,0
1164,"Meadowville","Meadowville",45.7,-62.916698,0,0,0
1165,"West Branch","West Branch",45.639556,-63.042298,0,0,0
1166,"Central West River","Central West River",45.575321,-62.849555,0,0,0
1167,"Rocklin","Rocklin",45.497634,-62.783184,0,0,0
1168,"Lorne","Lorne",45.426089,-62.707677,0,0,0
1169,"Bridgeville","Bridgeville",45.433739,-62.606633,0,0,0
1170,"Springville","Springville",45.453497,-62.623264,0,0,0
1171,"Thorburn","Thorburn",45.5667,-62.55,0,0,0
1172,"Sunny Brae","Sunny Brae",45.40124,-62.503139,0,0,0
1173,"McLellans Brook","McLellans Brook",45.543868,-62.610893,0,0,0
1174,"Sutherlands River","Sutherlands River",45.588753,-62.501879,0,0,0
1175,"Lower Barneys River","Lower Barneys River",45.667234,-62.347263,0,0,0
1176,"Lismore","Lismore",45.7,-62.2667,0,1,0
1177,"Ponds","Ponds",45.6833,-62.299998,0,0,0
1178,"Arisaig","Arisaig",45.758213,-62.165712,0,0,0
1179,"Malignant Cove","Malignant Cove",45.784937,-62.085755,0,0,0
1180,"Maryvale","Maryvale",45.733805,-62.042965,0,0,0
1181,"Ballantynes Cove","Ballantynes Cove",45.85958,-61.919533,0,0,0
1182,"Cape George","Cape George",45.842737,-61.927006,0,0,0
1183,"Livingstone Cove","Livingstone Cove",45.867341,-61.973277,0,0,0
1184,"Jimtown","Jimtown",45.7075,-61.9004,0,0,0
1185,"Greenwold","Greenwold",45.616787,-61.970533,0,0,0
1186,"St. Andrews","St. Andrews",45.555446,-61.888318,0,0,0
1187,"Purlbrook","Purlbrook",45.566699,-62.033299,0,0,0
1188,"West River","West River",45.583301,-62.033297,0,0,0
1189,"St. Joseph","St. Joseph",45.539824,-62.078015,0,0,0
1190,"James River","James River",45.571701,-62.132919,0,0,0
1191,"Kenzieville","Kenzieville",45.580634,-62.305634,0,0,0
1192,"Pictou Island","Pictou Island",45.804875,-62.55635,0,1,0
1193,"Avondale","Avondale",45.633301,-62.299998,0,0,0
1194,"Eden Lake","Eden Lake",45.40328,-62.28717,0,0,1
1195,"McPhersons Mills","McPhersons Mills",45.533298,-62.516702,0,0,1
1196,"Blue Mountain","Blue Mountain",45.4833,-62.433299,0,0,1
1197,"North Grant","North Grant",45.666698,-62.033298,0,0,0
1198,"Lower South River","Lower South River",45.599998,-61.916697,0,0,0
1199,"Monks Head","Monks Head",45.648304,-61.838936,0,0,0
1200,"Pomquet","Pomquet",45.630073,-61.848755,0,0,0
1202,"Bayfield","Bayfield",45.631928,-61.744762,0,0,0
1203,"Heatherton","Heatherton",45.587692,-61.791708,0,0,0
1204,"Big Tracadie","Big Tracadie",45.6167,-61.633302,0,0,0
1205,"Monastery","Monastery",45.612248,-61.615186,0,0,0
1206,"Tracadie","Tracadie",45.623269,-61.669183,0,0,0
1207,"Frankville","Frankville",45.655766,-61.52652,0,0,0
1208,"West Havre Boucher","West Havre Boucher",45.661947,-61.553933,0,0,0
1209,"Mattie Settlement","Mattie Settlement",45.593796,-61.552376,0,0,0
1210,"Cape Jack","Cape Jack",45.682271,-61.565035,0,0,0
1211,"Lower West River","Lower West River",45.61116,-62.012137,0,0,0
1212,"Salt Springs","Salt Springs",45.590349,-62.001883,0,0,0
1213,"North Lochaber","North Lochaber",45.447934,-62.009908,0,0,1
1214,"Upper South River","Upper South River",45.466702,-61.933301,0,0,0
1215,"Port Wade","Port Wade",44.683299,-65.716699,0,0,0
1216,"Inglisville","Inglisville",44.858481,-65.1115,0,0,0
1217,"Tremont","Tremont",44.951837,-64.932904,0,0,0
1218,"Aylesford East","Aylesford East",45.030102,-64.811045,0,0,0
1219,"Saint John","Saint John",45.2765,-66.078142,0,0,0
1220,"Moncton","Moncton",46.090712,-64.791441,0,0,0
1221,"Fredericton","Fredericton",45.955391,-66.645585,0,0,0
1222,"Edmundston","Edmundston",47.363868,-68.335573,0,0,0
1223,"Riverview","Riverview",46.058161,-64.811855,0,0,0
1224,"Dieppe","Dieppe",46.097806,-64.749748,0,0,0
1225,"Quispamsis","Quispamsis",45.448255,-65.94014,0,0,0
1226,"Bathurst","Bathurst",47.613709,-65.649421,0,0,0
1227,"Rothesay","Rothesay",45.390143,-65.99658,0,0,0
1228,"Oromocto","Oromocto",45.845063,-66.488621,0,0,0
1229,"Marysville","Marysville",45.977895,-66.587745,0,0,0
1230,"Campbellton","Campbellton",47.998588,-66.668579,0,0,0
1231,"Chatham","Chatham",47.029593,-65.463739,0,0,0
1232,"Newcastle","Newcastle",47.000698,-65.570544,0,0,0
1233,"Grand Falls","Grand-Sault",47.042603,-67.747064,0,0,0
1234,"Sackville","Sackville",45.895001,-64.364769,0,0,0
1235,"Woodstock","Woodstock",46.156683,-67.582063,0,0,0
1236,"Shediac","Shediac",46.219449,-64.538591,0,0,0
1237,"St. Stephen","St. Stephen",45.196433,-67.279876,0,0,0
1238,"Caraquet","Caraquet",47.787082,-64.955517,0,0,0
1239,"Beresford","Beresford",47.708384,-65.703269,0,0,0
1240,"New Maryland","New Maryland",45.896943,-66.682341,0,0,0
1241,"Sussex","Sussex",45.723598,-65.516412,0,0,0
1242,"Hampton","Hampton",45.524494,-65.819727,0,0,0
1243,"Dalhousie","Dalhousie",48.062699,-66.371523,0,0,0
1244,"Shippagan","Shippagan",47.740638,-64.712456,0,0,0
1245,"Bouctouche","Bouctouche",46.473331,-64.722054,0,0,0
1246,"Saint-Quentin","Saint-Quentin",47.508626,-67.39027,0,0,0
1247,"Cap-Pele","Cap-Pele",46.213282,-64.273758,0,0,0
1248,"Petit Rocher","Petit Rocher",47.784414,-65.718358,0,0,0
1249,"Salisbury","Salisbury",46.027239,-65.042035,0,0,0
1250,"Perth-Andover","Perth-Andover",46.746055,-67.701773,0,0,0
1251,"Saint Andrews","Saint Andrews",45.07645,-67.050572,0,0,0
1252,"Balmoral","Balmoral",47.973235,-66.447056,0,0,0
1253,"Neguac","Neguac",47.244838,-65.084946,0,0,0
1255,"Bas-Caraquet","Bas-Caraquet",47.798025,-64.829233,0,0,0
1256,"Lamèque","Lamèque",47.795666,-64.644135,0,0,0
1257,"McAdam","McAdam",45.595429,-67.319723,0,0,0
1258,"St. George","St. George",45.130084,-66.824817,0,0,0
1259,"Saint-Antoine","Saint-Antoine",46.364209,-64.753089,0,0,0
1260,"Charlo","Charlo",47.990967,-66.306562,0,0,0
1261,"Petitcodiac","Petitcodiac",45.932549,-65.170442,0,0,0
1262,"Chipman","Chipman",46.175356,-65.874857,0,0,0
1263,"St. Leonard","St. Leonard",47.164176,-67.924847,0,0,0
1264,"Atholville","Atholville",47.989758,-66.715414,0,0,0
1265,"Norton","Norton",45.632158,-65.70206,0,0,0
1266,"Richibucto","Richibucto",46.682455,-64.867715,0,0,0
1267,"Eel River Crossing","Eel River Crossing",48.015879,-66.423029,0,0,0
1268,"Maliseet","Maliseet",46.765552,-67.70641,0,0,0
1269,"Hillsborough","Hillsborough",45.923493,-64.647829,0,0,0
1270,"Bertrand","Bertrand",47.754235,-65.072302,0,0,0
1271,"Rogersville","Rogersville",46.735199,-65.42791,0,0,0
1272,"Plaster Rock","Plaster Rock",46.913166,-67.397078,0,0,0
1273,"Kedgwick","Kedgwick",47.644874,-67.342327,0,0,0
1274,"Sainte-Anne-de-Madawaska","Sainte-Anne-de-Madawaska",47.249439,-68.023091,0,0,0
1275,"Sainte-Anne-de-Kent","Sainte-Anne-de-Kent",46.553633,-64.77561,0,0,0
1276,"Sainte-Marie-Saint-Raphaël","Sainte-Marie-Saint-Raphaël",47.79789,-64.56545,0,0,0
1278,"Blacks Harbour","Blacks Harbour",45.060845,-66.794723,0,0,0
1279,"Nackawic","Nackawic",45.996175,-67.240881,0,0,0
1280,"Pointe-Verte","Pointe-Verte",47.855805,-65.766693,0,0,0
1281,"Blackville","Blackville",46.732104,-65.829697,0,0,0
1282,"Dorchester","Dorchester",45.900017,-64.516198,0,0,0
1283,"Saint-Isidore","Saint-Isidore",47.555934,-65.040854,0,0,0
1284,"Clair","Clair",47.253679,-68.606234,0,0,0
1285,"Rivière-Verte","Rivière-Verte",47.320356,-68.145423,0,0,0
1286,"Grande-Anse","Grande-Anse",47.812771,-65.177914,0,0,0
1287,"Rexton","Rexton",46.640146,-64.864263,0,0,0
1288,"Saint-Léolin","Saint-Léolin",47.770017,-65.166835,0,0,0
1289,"Saint-Basile","Saint-Basile",47.355399,-68.223284,0,0,0
1290,"Florenceville","Florenceville",46.444931,-67.614129,0,0,0
1291,"Bristol","Bristol",46.470632,-67.576157,0,0,0
1292,"North Head","North Head",44.767975,-66.766766,0,0,0
1293,"Fredericton Junction","Fredericton Junction",45.657986,-66.606666,0,0,0
1294,"Gagetown","Gagetown",45.781005,-66.149985,0,0,0
1295,"Paquetville","Paquetville",47.668448,-65.106797,0,0,0
1296,"Cambridge-Narrows","Cambridge-Narrows",45.830709,-65.955759,0,0,0
1297,"Tracy","Tracy",45.677608,-66.683689,0,0,0
1298,"Baker Brook","Baker Brook",47.301916,-68.508584,0,0,0
1299,"Bath","Bath",46.512234,-67.597132,0,0,0
1300,"Saint-François de Madawaska","Saint-François de Madawaska",47.244859,-68.69781,0,0,0
1301,"Centreville","Centreville",46.431451,-67.711511,0,0,0
1302,"Hartland","Hartland",46.30084,-67.523439,0,0,0
1303,"Drummond","Drummond",47.03499,-67.683308,0,0,0
1304,"Doaktown","Doaktown",46.552685,-66.126169,0,0,0
1305,"Nigadoo","Nigadoo",47.740099,-65.714456,0,0,0
1306,"Saint-Louis de Kent","Saint-Louis de Kent",46.737518,-64.972878,0,0,0
1307,"St. Martins","St. Martins",45.348448,-65.555201,0,0,0
1308,"Harvey","Harvey",45.729241,-67.004238,0,0,0
1309,"Millville","Millville",46.127372,-67.192882,0,0,0
1310,"Alma","Alma",45.606661,-64.940452,0,0,0
1311,"Elgin","Elgin",45.795764,-65.11449,0,0,0
1312,"Meductic","Meductic",45.99523,-67.487229,0,0,0
1313,"Havelock","Havelock",45.995438,-65.313516,0,0,0
1314,"Aroostook","Aroostook",46.805694,-67.72272,0,0,0
1315,"Napadogan","Napadogan",46.410546,-66.931276,0,1,0
1316,"Jacksonville","Jacksonville",46.189497,-67.613274,0,0,0
1317,"Riverside-Albert","Riverside-Albert",45.748809,-64.731768,0,0,0
1318,"Canterbury","Canterbury",45.892287,-67.460912,0,0,0
1319,"Lakeville","Lakeville",46.337364,-67.685977,0,0,0
1320,"Cumberland Bay","Cumberland Bay",46.040215,-65.865686,0,0,0
1321,"Keswick Ridge","Keswick Ridge",45.997597,-66.888709,0,0,0
1322,"Geary","Geary",45.758101,-66.475757,0,0,0
1323,"Glassville","Glassville",46.481221,-67.423659,0,0,0
1324,"Nashwaak Bridge","Nashwaak Bridge",46.239442,-66.607571,0,0,0
1325,"Jemseg","Jemseg",45.831464,-66.113697,0,0,1
1326,"Browns Flat","Browns Flat",45.468251,-66.133739,0,0,0
1327,"Mill Cove","Mill Cove",45.878092,-66.00466,0,0,0
1328,"Harcourt","Harcourt",46.470712,-65.244199,0,0,0
1329,"Debec","Debec",46.073168,-67.689384,0,0,0
1330,"Boiestown","Boiestown",46.455466,-66.41499,0,0,0
1331,"Port Elgin","Port Elgin",46.050003,-64.086286,0,0,0
1332,"Taymouth","Taymouth",46.183127,-66.607613,0,0,0
1333,"Juniper","Juniper",46.551685,-67.223921,0,0,0
1334,"Stanley","Stanley",46.284905,-66.733932,0,0,0
1335,"Lawrence Station","Lawrence Station",45.42467,-67.174645,0,0,0
1336,"Moores Mills","Moores Mills",45.292372,-67.2788,0,0,0
1337,"Cape Tormentine","Cape Tormentine",46.126101,-63.794962,0,0,0
1338,"Sunny Corner","Sunny Corner",46.948463,-65.811694,0,0,0
1339,"Acadieville","Acadieville",46.730811,-65.264985,0,0,0
1340,"Pointe-Sapin","Pointe-Sapin",46.96677,-64.832653,0,1,0
1341,"Escuminac","Escuminac",47.0757,-64.912163,0,0,0
1342,"Lavillette","Lavillette",47.262717,-65.325635,0,0,0
1343,"Arthurette","Arthurette",46.790624,-67.487209,0,0,0
1344,"Odell","Odell",46.817076,-67.429644,0,0,0
1345,"Saint-Sauveur","Saint-Sauveur",47.52564,-65.287623,0,0,0
1346,"Upsalquitch","Upsalquitch",47.813926,-66.879284,0,0,0
1347,"Saint-Paul","Saint-Paul",46.328196,-65.016383,0,0,0
1348,"Bass River","Bass River",46.544549,-65.1124,0,0,0
1349,"Cocagne","Cocagne",46.32994,-64.612944,0,0,0
1350,"Saint-Jean-Baptiste-de-Restigouche","Saint-Jean-Baptiste-de-Restigouche",47.765578,-67.212846,0,0,0
1351,"St. Margarets","St. Margarets",46.906145,-65.196614,0,0,0
1352,"Saint-Martin-de-Restigouche","Saint-Martin-de-Restigouche",47.571056,-67.334974,0,0,0
1353,"Riley Brook","Riley Brook",47.174493,-67.210789,0,1,0
1354,"Oxbow","Oxbow",47.014745,-67.295447,0,0,0
1355,"Fosterville","Fosterville",45.799819,-67.764876,0,0,0
1356,"New Bandon","New Bandon",46.496936,-66.277955,0,0,0
1357,"Sillikers","Sillikers",46.942648,-65.874793,0,0,0
1358,"Renous","Renous",46.815462,-65.797197,0,0,0
1359,"Saint-Ignace","Saint-Ignace",46.69786,-65.079593,0,0,0
1360,"Notre-Dame-des-Érables","Notre-Dame-des-Érables",47.637847,-65.242836,0,0,0
1361,"Pont-Landry","Pont-Landry",47.575141,-64.955485,0,0,0
1362,"Scoudouc","Scoudouc",46.163156,-64.562682,0,0,0
1363,"Tidnish Bridge","Tidnish Bridge",45.978762,-64.044058,0,0,0
1364,"Baie Verte","Baie Verte",46.018392,-64.100716,0,0,0
1365,"Point de Bute","Point de Bute",45.899293,-64.242686,0,0,0
1366,"Jolicure","Jolicure",45.944171,-64.215748,0,0,0
1367,"Baie Verte Road","Baie Verte Road",45.990994,-64.142952,0,0,0
1368,"Bayfield","Bayfield",46.136632,-63.815094,0,0,0
1369,"Murray Corner","Murray Corner",46.1714,-63.9631,0,0,0
1370,"Bas-Cap-Pelé","Bas-Cap-Pelé",46.233734,-64.268693,0,0,0
1371,"Petit-Cap","Petit-Cap",46.1894,-64.164607,0,0,0
1372,"Trois-Ruisseaux","Trois-Ruisseaux",46.208651,-64.208365,0,0,0
1373,"LeBlanc","LeBlanc",46.17328,-64.273524,0,0,0
1374,"Shemogue","Shemogue",46.156813,-64.180758,0,0,0
1375,"Dupuis Corner","Dupuis Corner",46.2219,-64.3512,0,0,0
1376,"Robichaud","Robichaud",46.220104,-64.381396,0,0,0
1377,"Barachois","Barachois",46.228638,-64.448025,0,0,0
1378,"Pointe-du-Chêne","Pointe-du-Chêne",46.237556,-64.517354,0,0,0
1379,"Haute-Aboujagane","Haute-Aboujagane",46.148057,-64.40045,0,0,0
1380,"Middle Sackville","Middle Sackville",45.920969,-64.364178,0,0,0
1381,"West Sackville","West Sackville",45.873807,-64.383389,0,0,0
1382,"Wood Point","Wood Point",45.839794,-64.379124,0,0,0
1383,"Rockport","Rockport",45.7333,-64.499999,0,0,0
1384,"Bayside","Bayside",46.0667,-64.0167,0,0,0
1385,"Cape Spear","Cape Spear",46.086365,-63.809358,0,0,0
1386,"Cookville","Cookville",46.04074,-64.333323,0,0,0
1387,"Midgic","Midgic",45.976233,-64.292498,0,0,0
1388,"Upper Sackville","Upper Sackville",45.944877,-64.34462,0,0,0
1389,"Memramcook","Memramcook",46.005274,-64.551908,0,0,0
1390,"College Bridge","College Bridge",45.979748,-64.545937,0,0,0
1391,"Memramcook East","Memramcook East",46.013213,-64.518557,0,0,0
1392,"Saint-Joseph","Saint-Joseph",45.97621,-64.564175,0,0,0
1393,"La Hêtrière","La Hêtrière",46.011092,-64.59918,0,0,0
1394,"Gautreau Village","Gautreau Village",45.967959,-64.645949,0,0,0
1395,"Weldon","Weldon",45.950319,-64.675791,0,0,0
1396,"Lower Coverdale","Lower Coverdale",46.031926,-64.721109,0,0,0
1397,"Lakeburn","Lakeburn",46.10279,-64.678733,0,0,0
1398,"Saint-Anselme","Saint-Anselme",46.063399,-64.712266,0,0,0
1399,"Hildegarde","Hildegarde",46.118059,-64.850222,0,0,0
1400,"Harrisville","Harrisville",46.117744,-64.719609,0,0,0
1401,"Lakeville","Lakeville",46.148859,-64.675428,0,0,0
1402,"Five Points","Five Points",46.021967,-65.01713,0,0,0
1403,"Boundary Creek","Boundary Creek",46.054825,-64.982383,0,0,0
1404,"Irishtown","Irishtown",46.188715,-64.7942,0,0,0
1405,"Dufourville","Dufourville",46.278872,-64.759221,0,0,0
1406,"Chapman Corner","Chapman Corner",46.220575,-64.5664,0,0,0
1407,"Shediac Cape","Shediac Cape",46.242353,-64.568977,0,0,0
1408,"Shediac Bridge","Shediac Bridge",46.273504,-64.585458,0,0,0
1409,"Notre-Dame","Notre-Dame",46.313962,-64.726522,0,0,0
1410,"Bourgeois","Bourgeois",46.311917,-64.523598,0,0,0
1411,"Cap-de-Cocagne","Cap-de-Cocagne",46.351759,-64.555979,0,0,0
1412,"Cap-des-Caissie","Cap-des-Caissie",46.340631,-64.537723,0,0,0
1413,"Grande-Digue","Grande-Digue",46.296117,-64.570399,0,0,0
1414,"Saint-Philippe","Saint-Philippe",46.215111,-64.692504,0,0,0
1415,"Cormierville","Cormierville",46.404194,-64.623855,0,0,0
1416,"Côte-d'Or","Côte-d'Or",46.347623,-64.615285,0,0,0
1417,"Saint-Thomas-de-Kent","Saint-Thomas-de-Kent",46.443213,-64.644413,0,0,0
1418,"Buctouche-Sud","Buctouche-Sud",46.463896,-64.711965,0,0,0
1419,"Sainte-Marie-de-Kent","Sainte-Marie-de-Kent",46.415997,-64.82662,0,0,0
1420,"McKees Mills","McKees Mills",46.418185,-64.725607,0,0,0
1421,"Saint-Édouard-de-Kent","Saint-Édouard-de-Kent",46.54335,-64.71186,0,0,0
1422,"Saint-Pierre-de-Kent","Saint-Pierre-de-Kent",46.513184,-64.756808,0,0,0
1423,"Côte-Sainte-Anne","Côte-Sainte-Anne",46.581315,-64.727625,0,0,0
1424,"Maria-de-Kent","Maria-de-Kent",46.447559,-64.776435,0,0,0
1425,"South Branch","South Branch",46.536293,-64.909743,0,0,1
1426,"West Branch","West Branch",46.536391,-64.958766,0,0,0
1427,"Normandie","Normandie",46.482003,-64.984259,0,0,0
1428,"Clairville","Clairville",46.3833,-65.099999,0,0,0
1429,"Légerville","Légerville",46.309488,-65.000379,0,0,0
1430,"Adamsville","Adamsville",46.396269,-65.182345,0,0,0
1431,"Cap-Lumière","Cap-Lumière",46.658844,-64.719038,0,0,0
1432,"Richibucto-Village","Richibucto-Village",46.656113,-64.759532,0,0,0
1434,"Bedec","Bedec",46.683301,-64.783304,0,0,0
1435,"Jardineville","Jardineville",46.65466,-64.853796,0,0,0
1436,"Grande-Aldouane","Grande-Aldouane",46.711214,-64.931569,0,0,0
1437,"Petite-Aldouane","Petite-Aldouane",46.708319,-64.891697,0,0,0
1438,"Saint-Charles","Saint-Charles",46.664205,-64.977961,0,0,0
1439,"Kouchibouguac","Kouchibouguac",46.792137,-65.053363,0,0,0
1440,"Baie-Sainte-Anne","Baie-Sainte-Anne",47.051973,-64.953896,0,0,0
1441,"Manuels","Manuels",47.035509,-64.986128,0,0,0
1442,"Hardwicke","Hardwicke",47.075109,-65.017298,0,0,0
1443,"Bay du Vin Beach","Bay du Vin Beach",47.054765,-65.134527,0,0,0
1444,"Point Gardiner","Point Gardiner",47.070745,-65.101228,0,0,0
1445,"Miramichi","Miramichi",47.037198,-65.178684,0,0,0
1446,"Black River","Black River",46.967938,-65.325513,0,0,0
1447,"Black River Bridge","Black River Bridge",47.011519,-65.255301,0,0,0
1448,"Little Branch","Little Branch",47.004325,-65.215674,0,0,0
1449,"Douglastown","Douglastown",47.027925,-65.501571,0,0,0
1450,"Nelson-Miramichi","Nelson-Miramichi",46.979486,-65.548131,0,0,0
1451,"Loggieville","Loggieville",47.070351,-65.381401,0,0,0
1452,"Forest Corner","Forest Corner",47.058067,-65.419172,0,0,0
1453,"Moorefield","Moorefield",47.045475,-65.477788,0,0,0
1454,"Lower Newcastle","Lower Newcastle",47.082239,-65.393602,0,0,0
1455,"Oak Point","Oak Point",47.123691,-65.269668,0,0,0
1456,"The Willows","The Willows",47.116571,-65.281019,0,0,0
1457,"Upper Napan","Upper Napan",47.002143,-65.425516,0,0,0
1458,"Chatham Head","Chatham Head",46.998984,-65.546198,0,0,0
1460,"Strathadam","Strathadam",46.966702,-65.666702,0,0,0
1461,"Whitney","Whitney",46.966702,-65.733297,0,0,0
1463,"Lyttleton","Lyttleton",46.937771,-65.91241,0,0,0
1464,"Matthews","Matthews",46.927146,-65.921122,0,0,0
1465,"Quarryville","Quarryville",46.834625,-65.780515,0,0,0
1466,"Coughlan","Coughlan",46.77053,-65.758181,0,0,0
1467,"Derby","Derby",46.888601,-65.655015,0,0,0
1468,"Upper Blackville","Upper Blackville",46.633133,-65.872872,0,0,0
1469,"Shinnickburn","Shinnickburn",46.55,-65.833297,0,1,0
1470,"Priceville","Priceville",46.513589,-66.285487,0,0,0
1471,"Ludlow","Ludlow",46.486979,-66.351047,0,0,0
1472,"Carrolls Crossing","Carrolls Crossing",46.519943,-66.240129,0,0,0
1473,"Russelltown","Russelltown",46.548946,-66.166771,0,0,0
1474,"Amostown","Amostown",46.533521,-66.207947,0,0,0
1475,"O'Donnells","O'Donnells",46.516701,-66.266701,0,0,0
1476,"Astle","Astle",46.416698,-66.466697,0,0,0
1477,"Parker Ridge","Parker Ridge",46.45377,-66.524855,0,0,0
1478,"Howard","Howard",46.666698,-65.783302,0,0,0
1479,"Keenan Siding","Keenan Siding",46.700001,-65.800005,0,0,0
1480,"The Lots","The Lots",46.6833,-65.85,0,0,0
1481,"Weaver Siding","Weaver Siding",46.616699,-65.966698,0,0,0
1482,"Blissfield","Blissfield",46.585945,-66.056739,0,0,0
1483,"Grand Lake Road","Grand Lake Road",46.519609,-66.094223,0,0,0
1484,"Storeytown","Storeytown",46.5667,-66.15,0,0,0
1485,"Bloomfield Ridge","Bloomfield Ridge",46.483299,-66.483301,0,0,0
1486,"Holtville","Holtville",46.5167,-66.483299,0,0,0
1487,"McGivney","McGivney",46.363299,-66.563589,0,0,0
1488,"Cross Creek","Cross Creek",46.309865,-66.717547,0,0,0
1489,"Williamsburg","Williamsburg",46.331685,-66.770291,0,0,0
1490,"Trout Brook","Trout Brook",47.114874,-65.783509,0,0,0
1491,"Wayerton","Wayerton",47.133301,-65.833296,0,1,0
1492,"Big Hole Tract No. 8 (South Half) (Notoaganeg)","Big Hole Tract No. 8 (South Half) (Notoaganeg)",47.039842,-65.828521,0,0,0
1493,"Exmoor","Exmoor",46.983298,-65.833296,0,0,0
1494,"Beaver Brook Station","Beaver Brook Station",47.133301,-65.599999,0,0,0
1495,"Nowlanville","Nowlanville",46.943444,-65.516701,0,0,0
1496,"Barryville","Barryville",47.150001,-65.249999,0,0,0
1497,"New Jersey","New Jersey",47.202964,-65.19765,0,0,0
1498,"Lagacéville","Lagacéville",47.229897,-65.178004,0,0,0
1499,"Saint-Wilfred","Saint-Wilfred",47.257969,-65.224425,0,0,0
1500,"Lower Neguac","Lower Neguac",47.267635,-65.058837,0,0,0
1501,"Fairisle","Fairisle",47.281867,-65.123144,0,0,0
1502,"Covedell","Covedell",47.315322,-65.015206,0,0,0
1503,"Tabusintac","Tabusintac",47.327109,-65.011231,0,0,0
1504,"Brantville","Brantville",47.372595,-64.968198,0,0,0
1505,"Pontgravé","Pontgravé",47.414671,-64.956386,0,0,0
1506,"Rivière-du-Portage","Rivière-du-Portage",47.421026,-64.934899,0,0,0
1507,"Pont-Lafrance","Pont-Lafrance",47.442252,-64.974535,0,0,0
1508,"Leech","Leech",47.453367,-64.980765,0,0,0
1509,"Saint-Pons","Saint-Pons",47.474714,-64.961494,0,0,0
1510,"Upper Sheila","Upper Sheila",47.463419,-64.948281,0,0,0
1511,"Benoit","Benoit",47.486416,-64.961296,0,0,0
1512,"Saumarez","Saumarez",47.499901,-64.94015,0,0,0
1513,"Tracadie","Tracadie",47.51398,-64.914579,0,0,0
1514,"Sheila","Sheila",47.483299,-64.916705,0,0,0
1515,"Losier Settlement","Losier Settlement",47.563291,-64.933736,0,0,0
1516,"Boishébert","Boishébert",47.567648,-64.992746,0,0,0
1517,"Duguayville","Duguayville",47.601825,-65.06982,0,0,0
1518,"Haut-Sainte-Rose","Haut-Sainte-Rose",47.622914,-64.990882,0,0,0
1519,"Six Roads","Six Roads",47.622315,-64.871867,0,0,0
1520,"Maltampec","Maltampec",47.674933,-64.981954,0,0,0
1521,"Landry","Landry",47.667128,-64.950491,0,0,0
1522,"Inkerman","Inkerman",47.66849,-64.823757,0,0,0
1523,"Four Roads","Four Roads",47.610496,-64.842037,0,0,0
1524,"South River","South River",47.650001,-64.866699,0,0,0
1525,"Pokemouche","Pokemouche",47.671969,-64.883798,0,0,0
1526,"Upper Pokemouche","Upper Pokemouche",47.687478,-64.875723,0,0,0
1527,"Evangeline","Evangeline",47.692537,-64.846857,0,0,0
1528,"Inkerman Ferry","Inkerman Ferry",47.681418,-64.813729,0,0,0
1529,"Centre-Saint-Simon","Centre-Saint-Simon",47.736226,-64.840524,0,0,0
1530,"Haut-Saint-Simon","Haut-Saint-Simon",47.728085,-64.825579,0,0,0
1531,"Sainte-Rose-Gloucester","Sainte-Rose-Gloucester",47.618373,-64.933582,0,0,0
1532,"Thériault","Thériault",47.731031,-65.057158,0,0,0
1533,"Anse-Bleue","Anse-Bleue",47.823823,-65.082627,0,0,0
1534,"Maisonnette","Maisonnette",47.81673,-65.013158,0,0,0
1535,"Le Bouthillier","Le Bouthillier",47.796565,-64.900679,0,0,0
1536,"Middle Caraquet","Middle Caraquet",47.800607,-64.870275,0,0,0
1537,"Pokesudie","Pokesudie",47.800657,-64.767655,0,0,0
1538,"Morais","Morais",47.767729,-64.79825,0,0,0
1539,"Le Goulet","Le Goulet",47.704351,-64.71119,0,0,0
1540,"Haut-Shippegan","Haut-Shippegan",47.744662,-64.755047,0,0,0
1541,"Savoy Landing","Savoy Landing",47.752077,-64.68608,0,0,0
1542,"Chiasson","Chiasson",47.735548,-64.635923,0,0,0
1543,"Sainte-Marie-sur-Mer","Sainte-Marie-sur-Mer",47.777315,-64.578339,0,0,0
1544,"Cap-Bateau","Cap-Bateau",47.814545,-64.537704,0,0,0
1545,"Coteau Road","Coteau Road",47.832234,-64.56259,0,0,0
1546,"Petite-Rivière-de-l'Ile","Petite-Rivière-de-l'Ile",47.869289,-64.643928,0,0,0
1547,"Pointe-Canot","Pointe-Canot",47.835162,-64.694734,0,0,0
1548,"Sainte-Cécile","Sainte-Cécile",47.854388,-64.667381,0,0,0
1549,"Pigeon Hill","Pigeon Hill",47.847615,-64.513054,0,0,0
1550,"Little Shippegan","Little Shippegan",47.876967,-64.594661,0,0,0
1551,"Miscou Centre","Miscou Centre",47.940479,-64.568005,0,0,0
1552,"Miscou Harbour","Miscou Harbour",47.900003,-64.583299,0,0,0
1553,"Miscou Lighthouse","Miscou Lighthouse",48.008926,-64.523515,0,0,0
1554,"Miscou Plains","Miscou Plains",47.988853,-64.531209,0,0,0
1555,"Wilson Point","Wilson Point",47.9333,-64.483301,0,0,0
1556,"Black Rock","Black Rock",47.749999,-65.233298,0,0,0
1557,"New Bandon","New Bandon",47.75756,-65.315422,0,0,0
1558,"Pokeshaw","Pokeshaw",47.786842,-65.255465,0,0,0
1559,"Stonehaven","Stonehaven",47.749029,-65.356564,0,0,0
1560,"Canobie","Canobie",47.684976,-65.364206,0,0,0
1561,"Val-Doucet","Val-Doucet",47.615311,-65.202797,0,0,0
1562,"Sainte-Anne-du-Bocage","Sainte-Anne-du-Bocage",47.767959,-65.011835,0,0,0
1563,"Haut-Caraquet","Haut-Caraquet",47.76399,-65.05027,0,0,0
1564,"Allardville East","Allardville East",47.500008,-65.38881,0,0,0
1565,"Butte-D'Or","Butte-D'Or",47.543527,-65.206175,0,0,0
1566,"Allardville","Allardville",47.473175,-65.493206,0,0,0
1567,"Daulnay","Daulnay",47.414705,-65.459001,0,0,0
1568,"Jeanne-Mance","Jeanne-Mance",47.349374,-65.431466,0,0,0
1569,"Janeville","Janeville",47.686526,-65.449114,0,0,0
1570,"Clifton","Clifton",47.727107,-65.392265,0,0,0
1571,"Salmon Beach","Salmon Beach",47.662253,-65.532671,0,0,0
1572,"Cains Point","Cains Point",47.341249,-65.104657,0,0,0
1573,"Gaythorne","Gaythorne",47.362737,-65.071685,0,0,0
1574,"Allainville","Allainville",47.292639,-65.266201,0,0,0
1575,"Bartibog","Bartibog",47.185686,-65.405814,0,0,0
1576,"St. Mary","St. Mary",47.606703,-65.631627,0,0,0
1577,"Cross Roads","Cross Roads",47.640515,-65.685652,0,0,0
1578,"Sainte-Anne","Sainte-Anne",47.627971,-65.722478,0,0,0
1579,"Youghall","Youghall",47.65956,-65.645871,0,0,0
1580,"Carron Point","Carron Point",47.648219,-65.602042,0,0,0
1581,"North Tetagouche","North Tetagouche",47.63533,-65.762122,0,0,0
1582,"Rough Waters","Rough Waters",47.590441,-65.641427,0,0,0
1583,"Big River","Big River",47.578665,-65.666747,0,0,0
1584,"Pabineau","Pabineau",47.532625,-65.670555,0,0,0
1585,"Nepisiguit Junction","Nepisiguit Junction",47.56136,-65.669396,0,0,0
1586,"South Tetagouche","South Tetagouche",47.602023,-65.840216,0,0,0
1587,"Nicholas Denys","Nicholas Denys",47.697344,-65.885237,0,0,0
1588,"Robertville","Robertville",47.695401,-65.772709,0,0,0
1589,"Bathurst Mines","Bathurst Mines",47.416699,-65.800004,0,0,0
1590,"Saint-Laurent","Saint-Laurent",47.724479,-65.774685,0,0,0
1591,"Peters River","Peters River",47.679918,-65.691966,0,0,0
1592,"Petit-Rocher-Sud","Petit-Rocher-Sud",47.761191,-65.713617,0,0,0
1593,"LaPlante","LaPlante",47.768904,-65.775811,0,0,0
1594,"Tremblay","Tremblay",47.75,-65.750002,0,0,0
1595,"Devereaux","Devereaux",47.825565,-65.738358,0,0,0
1596,"Madran","Madran",47.817059,-65.772459,0,0,0
1597,"Petit-Rocher-Nord","Petit-Rocher-Nord",47.804129,-65.73165,0,0,0
1598,"Belledune","Belledune",47.883146,-65.813845,0,0,0
1599,"Belledune River","Belledune River",47.906535,-65.882625,0,0,0
1600,"Culligan","Culligan",47.912522,-65.931443,0,0,0
1601,"Armstrong Brook","Armstrong Brook",47.915136,-65.966672,0,0,0
1602,"Durham Centre","Durham Centre",47.918582,-66.03193,0,0,0
1603,"Jacquet River","Jacquet River",47.914645,-66.007282,0,0,0
1604,"Nash Creek","Nash Creek",47.920416,-66.084039,0,0,0
1605,"Lorne","Lorne",47.87326,-66.127391,0,0,0
1606,"Sea Side","Sea Side",47.951095,-66.131932,0,0,0
1607,"Doyleville","Doyleville",47.90325,-66.100924,0,0,0
1608,"Benjamin River","Benjamin River",47.961082,-66.171446,0,0,0
1609,"Upper Charlo","Upper Charlo",48.002438,-66.348697,0,0,0
1610,"Mountain Brook","Mountain Brook",47.983957,-66.360675,0,0,0
1612,"Darlington","Darlington",48.049999,-66.383302,0,0,0
1613,"Selwood","Selwood",47.982663,-66.404674,0,0,0
1614,"Dundee","Dundee",48.002617,-66.484198,0,0,0
1615,"McNeish","McNeish",48.057966,-66.414801,0,0,0
1616,"Dalhousie Junction","Dalhousie Junction",48.037145,-66.499684,0,0,0
1617,"Point La Nim","Point La Nim",48.053709,-66.456098,0,0,0
1618,"Maple Green","Maple Green",48.026874,-66.527737,0,0,0
1619,"McLeods","McLeods",48.014821,-66.564129,0,0,0
1620,"Saint-Maure","Saint-Maure",47.947639,-66.468389,0,0,0
1621,"Blair Athol","Blair Athol",47.938846,-66.571811,0,0,0
1622,"Val-d'Amour","Val-d'Amour",47.953832,-66.681656,0,0,0
1623,"Tide Head","Tide Head",47.983663,-66.771592,0,0,0
1624,"Glencoe","Glencoe",47.954298,-66.803832,0,0,0
1625,"Saint-Arthur","Saint-Arthur",47.88985,-66.756735,0,0,0
1626,"Val-Melanson","Val-Melanson",47.908399,-66.784595,0,0,0
1627,"Glen Levit","Glen Levit",47.961056,-66.850522,0,0,0
1628,"Dawsonville","Dawsonville",47.932937,-66.892763,0,0,0
1629,"Flatlands","Flatlands",47.990214,-66.870921,0,0,0
1630,"Robinsonville","Robinsonville",47.869074,-66.950402,0,0,0
1631,"Menneval","Menneval",47.803869,-67.180611,0,1,0
1632,"Whites Brook","Whites Brook",47.683048,-67.271269,0,0,0
1633,"Rang-Double-Nord","Rang-Double-Nord",47.650001,-67.383301,0,0,0
1634,"Thibault","Thibault",47.612806,-67.347851,0,0,0
1635,"Rang-Douze-Nord","Rang-Douze-Nord",47.55121,-67.391591,0,0,0
1636,"Five Fingers","Five Fingers",47.512949,-67.358851,0,0,0
1637,"Hazen","Hazen",47.493336,-67.426444,0,0,0
1638,"Kedgwick River","Kedgwick River",47.659538,-67.476799,0,0,0
1639,"Rang-Douze-Sud","Rang-Douze-Sud",47.48507,-67.392878,0,0,0
1640,"Connors","Connors",47.209887,-68.826073,0,1,0
1641,"Pelletiers Mill","Pelletiers Mill",47.233224,-68.760424,0,0,0
1642,"Val Oakes","Val Oakes",47.22143,-68.78712,0,0,0
1643,"Les Rapides","Les Rapides",47.266701,-68.6,0,0,0
1644,"Caron Brook","Caron Brook",47.288142,-68.583858,0,0,0
1645,"Lac Baker","Lac Baker",47.333427,-68.640652,0,0,0
1646,"Portage-du-Lac","Portage-du-Lac",47.316701,-68.6,0,0,0
1647,"Boundary","Boundary",47.371321,-68.723768,0,0,0
1648,"Verret","Verret",47.349997,-68.3833,0,0,0
1649,"St. Hilaire","St. Hilaire",47.289774,-68.40668,0,0,0
1650,"Riceville","Riceville",47.346183,-68.458844,0,0,0
1651,"Val-Lambert","Val-Lambert",47.3833,-68.533302,0,0,0
1652,"Edmundston-Est","Edmundston-Est",47.376787,-68.323137,0,0,0
1653,"Iroquois","Iroquois",47.368817,-68.276445,0,0,0
1654,"Saint-Jacques","Saint-Jacques",47.433379,-68.388202,0,0,0
1655,"Ennemond","Ennemond",47.394724,-68.443718,0,0,0
1656,"Patrieville","Patrieville",47.483429,-68.412474,0,0,0
1657,"Moulin-Morneault","Moulin-Morneault",47.457722,-68.358127,0,0,0
1658,"Saint-Joseph-de-Madawaska","Saint-Joseph-de-Madawaska",47.45586,-68.315179,0,0,0
1659,"Rang-des-Bossé","Rang-des-Bossé",47.47109,-68.323422,0,0,0
1660,"Jalbert","Jalbert",47.402716,-68.238124,0,0,0
1661,"Davis Mill","Davis Mill",47.347036,-68.139137,0,0,0
1662,"Prime","Prime",47.28249,-68.0984,0,0,0
1663,"Siegas","Siegas",47.216743,-67.981723,0,0,0
1664,"Siegas Lake Settlement","Siegas Lake Settlement",47.311808,-67.914532,0,0,0
1665,"Sirois","Sirois",47.283298,-68,0,0,0
1666,"Miller Line Cache","Miller Line Cache",47.366234,-67.862837,0,1,0
1667,"Saint-Léonard-Parent","Saint-Léonard-Parent",47.145826,-67.903552,0,0,0
1668,"Bellefleur","Bellefleur",47.116699,-67.8833,0,0,0
1669,"Violette Settlement","Violette Settlement",47.176846,-67.815594,0,0,0
1670,"Powers Creek","Powers Creek",47.083302,-67.816703,0,0,0
1671,"St. André","St. André",47.09884,-67.761291,0,0,0
1672,"Hennigar Corner","Hennigar Corner",47.053354,-67.717929,0,0,0
